{"type": "FeatureCollection", "features": [{"type":"Feature","geometry":{"type":"Point","coordinates":[-13.5827,10.5619]},"properties":{"cartodb_id":49,"place":"Madina","sub_prefecture":"Baguinet","prefecture":"Fria","region":"Boke","organization":"","type":"Autres","center":"Madina","center_id":"HM0174","country":"Guinea","longitude":-13.5826998,"latitude":10.5619001}},{"type":"Feature","geometry":{"type":"Point","coordinates":[-13,9]},"properties":{"cartodb_id":143,"place":"Dabompa","sub_prefecture":"Matoto","prefecture":"Conakry","region":"Conakry","organization":"GOV","type":"Centre de Sante","center":"Centre de Santé Dabompa","center_id":"MOH009","country":"Guinea","longitude":null,"latitude":null}},{"type":"Feature","geometry":{"type":"Point","coordinates":[-11.9392,10.8891]},"properties":{"cartodb_id":853,"place":"Donde","sub_prefecture":"Mafara","prefecture":"Dalaba","region":"Mamou","organization":"","type":"Autres","center":"Dondè","center_id":"HM0155","country":"Guinea","longitude":-11.9392004,"latitude":10.8891001}},{"type":"Feature","geometry":{"type":"Point","coordinates":[-14.6045,10.6603]},"properties":{"cartodb_id":112,"place":"Kamsar Cite","sub_prefecture":"Kamsar","prefecture":"Boke","region":"Boke","organization":"","type":"Hospital","center":"O.F.A.B","center_id":"HM0133","country":"Guinea","longitude":-14.6044998,"latitude":10.6603003}},{"type":"Feature","geometry":{"type":"Point","coordinates":[-13.6211,9.5929]},"properties":{"cartodb_id":161,"place":"Koloma","sub_prefecture":"Ratoma","prefecture":"Conakry","region":"Conakry","organization":"","type":"Centre de Sante","center":"Sandia Snoeren","center_id":"HM1035","country":"Guinea","longitude":-13.6211004,"latitude":9.5929003}},{"type":"Feature","geometry":{"type":"Point","coordinates":[-9.03619,11.4099]},"properties":{"cartodb_id":451,"place":"Sougoula","sub_prefecture":"Siguiri Centre","prefecture":"Siguiri","region":"Kankan","organization":"","type":"Autres","center":"Sougoula","center_id":"HM0562","country":"Guinea","longitude":-9.03619,"latitude":11.4098997}},{"type":"Feature","geometry":{"type":"Point","coordinates":[-13.0907,9.43213]},"properties":{"cartodb_id":647,"place":"Forecariah Urb","sub_prefecture":"Forecariah-Centre","prefecture":"Forecariah","region":"Kindia","organization":"","type":"Centre de Sante","center":"Tatagui","center_id":"HM0008","country":"Guinea","longitude":-13.0907001,"latitude":9.4321299}},{"type":"Feature","geometry":{"type":"Point","coordinates":[-14.22182,10.234334]},"properties":{"cartodb_id":1,"place":"Lakhata","sub_prefecture":"Boffa Centre","prefecture":"Boffa","region":"Boke","organization":"GOV","type":"Autres","center":"Lakhata","center_id":"HM0098","country":"Guinea","longitude":-14.22182,"latitude":10.234334}},{"type":"Feature","geometry":{"type":"Point","coordinates":[-14.012,10.2919]},"properties":{"cartodb_id":2,"place":"Lonking","sub_prefecture":"Boffa Centre","prefecture":"Boffa","region":"Boke","organization":"GOV","type":"Autres","center":"Lonking","center_id":"HM0099","country":"Guinea","longitude":-14.0120001,"latitude":10.2918997}},{"type":"Feature","geometry":{"type":"Point","coordinates":[-14.425758,10.267259]},"properties":{"cartodb_id":3,"place":"Koundinde","sub_prefecture":"Douprou","prefecture":"Boffa","region":"Boke","organization":"GOV","type":"Autres","center":"Koumbaya","center_id":"HM0100","country":"Guinea","longitude":-14.425758,"latitude":10.267259}},{"type":"Feature","geometry":{"type":"Point","coordinates":[-14.3971,10.2531]},"properties":{"cartodb_id":4,"place":"Sobanet","sub_prefecture":"Douprou","prefecture":"Boffa","region":"Boke","organization":"GOV","type":"Autres","center":"Bilnsadé","center_id":"HM0102","country":"Guinea","longitude":-14.3971004,"latitude":10.2531004}},{"type":"Feature","geometry":{"type":"Point","coordinates":[-13.951309,10.010792]},"properties":{"cartodb_id":5,"place":"Kitto","sub_prefecture":"Koba","prefecture":"Boffa","region":"Boke","organization":"GOV","type":"Autres","center":"Kottèya","center_id":"HM0106","country":"Guinea","longitude":-13.951309,"latitude":10.010792}},{"type":"Feature","geometry":{"type":"Point","coordinates":[-13.816617,9.980535]},"properties":{"cartodb_id":6,"place":"Moussaya, Tatema","sub_prefecture":"Koba","prefecture":"Boffa","region":"Boke","organization":"GOV","type":"Autres","center":"Moussaya","center_id":"HM0934","country":"Guinea","longitude":-13.816617,"latitude":9.980535}},{"type":"Feature","geometry":{"type":"Point","coordinates":[-13.7369,9.92932]},"properties":{"cartodb_id":7,"place":"Souguebounyi (SouguéBunyi)","sub_prefecture":"Koba","prefecture":"Boffa","region":"Boke","organization":"GOV","type":"Autres","center":"M'Bendia","center_id":"HM0107","country":"Guinea","longitude":-13.7369003,"latitude":9.9293203}},{"type":"Feature","geometry":{"type":"Point","coordinates":[-14.0356,10.6907]},"properties":{"cartodb_id":8,"place":"Mokefoton","sub_prefecture":"Kolia","prefecture":"Boffa","region":"Boke","organization":"GOV","type":"Autres","center":"Diougouma","center_id":"HM0976","country":"Guinea","longitude":-14.0355997,"latitude":10.6906996}},{"type":"Feature","geometry":{"type":"Point","coordinates":[-13.8319,10.5203]},"properties":{"cartodb_id":9,"place":"Yenguissa (Yanguessa)","sub_prefecture":"Kolia","prefecture":"Boffa","region":"Boke","organization":"GOV","type":"Autres","center":"N'Dantari Centre","center_id":"HM0112","country":"Guinea","longitude":-13.8318996,"latitude":10.5202999}},{"type":"Feature","geometry":{"type":"Point","coordinates":[-13.85,10.4557]},"properties":{"cartodb_id":10,"place":"Falaba","sub_prefecture":"Lisso","prefecture":"Boffa","region":"Boke","organization":"GOV","type":"Autres","center":"Missira","center_id":"HM0111","country":"Guinea","longitude":-13.8500004,"latitude":10.4556999}},{"type":"Feature","geometry":{"type":"Point","coordinates":[-13.9398,10.3297]},"properties":{"cartodb_id":11,"place":"Katiya (Kativa)","sub_prefecture":"Lisso","prefecture":"Boffa","region":"Boke","organization":"GOV","type":"Autres","center":"Khatia","center_id":"HM0928","country":"Guinea","longitude":-13.9398003,"latitude":10.3297005}},{"type":"Feature","geometry":{"type":"Point","coordinates":[-13.9082,10.3479]},"properties":{"cartodb_id":12,"place":"Tamalan","sub_prefecture":"Lisso","prefecture":"Boffa","region":"Boke","organization":"GOV","type":"Autres","center":"Bondy","center_id":"HM0108","country":"Guinea","longitude":-13.9082003,"latitude":10.3479004}},{"type":"Feature","geometry":{"type":"Point","coordinates":[-13.8612,10.2901]},"properties":{"cartodb_id":13,"place":"Correrah","sub_prefecture":"Tamita","prefecture":"Boffa","region":"Boke","organization":"GOV","type":"Autres","center":"Corrérah Centre","center_id":"HM0116","country":"Guinea","longitude":-13.8612003,"latitude":10.2901001}},{"type":"Feature","geometry":{"type":"Point","coordinates":[-13.9173,10.0985]},"properties":{"cartodb_id":14,"place":"Filanyan (Filanian)","sub_prefecture":"Tamita","prefecture":"Boffa","region":"Boke","organization":"GOV","type":"Autres","center":"Fallandjan","center_id":"HM0932","country":"Guinea","longitude":-13.9173002,"latitude":10.0985003}},{"type":"Feature","geometry":{"type":"Point","coordinates":[-13.901096,10.19947]},"properties":{"cartodb_id":15,"place":"Gbassayah","sub_prefecture":"Tamita","prefecture":"Boffa","region":"Boke","organization":"GOV","type":"Autres","center":"Gbassaya Centre","center_id":"HM0117","country":"Guinea","longitude":-13.901096,"latitude":10.19947}},{"type":"Feature","geometry":{"type":"Point","coordinates":[-13.76236,10.5101]},"properties":{"cartodb_id":16,"place":"Yenguissa (Yanguessa)","sub_prefecture":"Tamita","prefecture":"Boffa","region":"Boke","organization":"GOV","type":"Autres","center":"Yènguissa Centre","center_id":"HM0118","country":"Guinea","longitude":-13.76236,"latitude":10.5101004}},{"type":"Feature","geometry":{"type":"Point","coordinates":[-14.439,10.3105]},"properties":{"cartodb_id":17,"place":"Mamiya","sub_prefecture":"Tougnifily","prefecture":"Boffa","region":"Boke","organization":"GOV","type":"Autres","center":"Mamiah Centre","center_id":"HM0120","country":"Guinea","longitude":-14.4390001,"latitude":10.3105001}},{"type":"Feature","geometry":{"type":"Point","coordinates":[-14.370878,10.615824]},"properties":{"cartodb_id":18,"place":"Kankako 16","sub_prefecture":"Bintimodia","prefecture":"Boke","region":"Boke","organization":"GOV","type":"Autres","center":"Kankako Centre","center_id":"HM0124","country":"Guinea","longitude":-14.370878,"latitude":10.615824}},{"type":"Feature","geometry":{"type":"Point","coordinates":[-14.4723,10.6317]},"properties":{"cartodb_id":19,"place":"Katako","sub_prefecture":"Bintimodia","prefecture":"Boke","region":"Boke","organization":"GOV","type":"Autres","center":"Kataco","center_id":"HM0121","country":"Guinea","longitude":-14.4722996,"latitude":10.6316996}},{"type":"Feature","geometry":{"type":"Point","coordinates":[-14.367,10.6717]},"properties":{"cartodb_id":20,"place":"Kolia","sub_prefecture":"Bintimodia","prefecture":"Boke","region":"Boke","organization":"GOV","type":"Autres","center":"Kolia-Sana Mato","center_id":"HM0123","country":"Guinea","longitude":-14.3669996,"latitude":10.6716995}},{"type":"Feature","geometry":{"type":"Point","coordinates":[-14.4858,10.729299]},"properties":{"cartodb_id":21,"place":"Bokarya","sub_prefecture":"Kamsar","prefecture":"Boke","region":"Boke","organization":"","type":"Autres","center":"Bocarea","center_id":"HM0999","country":"Guinea","longitude":-14.4857998,"latitude":10.7292995}},{"type":"Feature","geometry":{"type":"Point","coordinates":[-14.5221,10.7169]},"properties":{"cartodb_id":22,"place":"Kamakouloun","sub_prefecture":"Kamsar","prefecture":"Boke","region":"Boke","organization":"","type":"Autres","center":"Kamakouloun","center_id":"HM0129","country":"Guinea","longitude":-14.5221004,"latitude":10.7168999}},{"type":"Feature","geometry":{"type":"Point","coordinates":[-14.564357,10.543014]},"properties":{"cartodb_id":23,"place":"Kouffin","sub_prefecture":"Kamsar","prefecture":"Boke","region":"Boke","organization":"","type":"Autres","center":"Kouffin","center_id":"HM0136","country":"Guinea","longitude":-14.564357,"latitude":10.543014}},{"type":"Feature","geometry":{"type":"Point","coordinates":[-14.4698,10.6875]},"properties":{"cartodb_id":24,"place":"Missira-Nerebounyi","sub_prefecture":"Kamsar","prefecture":"Boke","region":"Boke","organization":"","type":"Autres","center":"Neriboundji","center_id":"HM0130","country":"Guinea","longitude":-14.4698,"latitude":10.6875}},{"type":"Feature","geometry":{"type":"Point","coordinates":[-14.5998,10.6169]},"properties":{"cartodb_id":25,"place":"Taigbe","sub_prefecture":"Kamsar","prefecture":"Boke","region":"Boke","organization":"","type":"Autres","center":"Taïgbé","center_id":"HM0132","country":"Guinea","longitude":-14.5998001,"latitude":10.6169004}},{"type":"Feature","geometry":{"type":"Point","coordinates":[-14.0305,10.9127]},"properties":{"cartodb_id":26,"place":"Kadigne","sub_prefecture":"Kanfarande","prefecture":"Boke","region":"Boke","organization":"","type":"Autres","center":"Kadignet","center_id":"HM0983","country":"Guinea","longitude":-14.0305004,"latitude":10.9126997}},{"type":"Feature","geometry":{"type":"Point","coordinates":[-14.8819,10.8421]},"properties":{"cartodb_id":27,"place":"Kapkin","sub_prefecture":"Kanfarande","prefecture":"Boke","region":"Boke","organization":"","type":"Autres","center":"Kapkin","center_id":"HM0703","country":"Guinea","longitude":-14.8818998,"latitude":10.8421001}},{"type":"Feature","geometry":{"type":"Point","coordinates":[-15.0219,10.8077]},"properties":{"cartodb_id":28,"place":"Katfoura","sub_prefecture":"Kanfarande","prefecture":"Boke","region":"Boke","organization":"","type":"Autres","center":"Katfoura","center_id":"HM0702","country":"Guinea","longitude":-15.0219002,"latitude":10.8077002}},{"type":"Feature","geometry":{"type":"Point","coordinates":[-14.4586,10.8293]},"properties":{"cartodb_id":29,"place":"Dabankou","sub_prefecture":"Kollaboui","prefecture":"Boke","region":"Boke","organization":"","type":"Autres","center":"Dabanku","center_id":"HM0139","country":"Guinea","longitude":-14.4586,"latitude":10.8292999}},{"type":"Feature","geometry":{"type":"Point","coordinates":[-14.487,10.7909]},"properties":{"cartodb_id":30,"place":"Satenenya","sub_prefecture":"Kollaboui","prefecture":"Boke","region":"Boke","organization":"","type":"Autres","center":"Saténèya","center_id":"HM0140","country":"Guinea","longitude":-14.4870005,"latitude":10.7909002}},{"type":"Feature","geometry":{"type":"Point","coordinates":[-13.8859,10.9217]},"properties":{"cartodb_id":31,"place":"Balandougou","sub_prefecture":"Sangaredi","prefecture":"Boke","region":"Boke","organization":"","type":"Autres","center":"Balandougou","center_id":"HM0146","country":"Guinea","longitude":-13.8858995,"latitude":10.9216995}},{"type":"Feature","geometry":{"type":"Point","coordinates":[-14.206,11.2669]},"properties":{"cartodb_id":32,"place":"Diguiti","sub_prefecture":"Tanene","prefecture":"Boke","region":"Boke","organization":"","type":"Autres","center":"Djiguiti","center_id":"HM0428","country":"Guinea","longitude":-14.2060003,"latitude":11.2669001}},{"type":"Feature","geometry":{"type":"Point","coordinates":[-14.4547,10.8819]},"properties":{"cartodb_id":33,"place":"Katougouma","sub_prefecture":"Tanene","prefecture":"Boke","region":"Boke","organization":"","type":"Autres","center":"Katougouma","center_id":"HM0429","country":"Guinea","longitude":-14.4547005,"latitude":10.8818998}},{"type":"Feature","geometry":{"type":"Point","coordinates":[-14.4256,11.046699]},"properties":{"cartodb_id":34,"place":"Kimiya","sub_prefecture":"Tanene","prefecture":"Boke","region":"Boke","organization":"","type":"Autres","center":"Kimeya","center_id":"HM0430","country":"Guinea","longitude":-14.4256001,"latitude":11.0466995}},{"type":"Feature","geometry":{"type":"Point","coordinates":[-14.1581,10.9695]},"properties":{"cartodb_id":35,"place":"Dambantiem","sub_prefecture":"Tanene","prefecture":"Boke","region":"Boke","organization":"","type":"Autres","center":"Dambantchian Centre","center_id":"HM0426","country":"Guinea","longitude":-14.1581001,"latitude":10.9694996}},{"type":"Feature","geometry":{"type":"Point","coordinates":[-13.0902,11.4203]},"properties":{"cartodb_id":36,"place":"Sinthiou-Wara","sub_prefecture":"Kakony","prefecture":"Gaoual","region":"Boke","organization":"","type":"Autres","center":"Sinthiou-Wara","center_id":"HM0051","country":"Guinea","longitude":-13.0902004,"latitude":11.4202995}},{"type":"Feature","geometry":{"type":"Point","coordinates":[-13.1747,11.1537]},"properties":{"cartodb_id":37,"place":"Karmafassa","sub_prefecture":"Kakony","prefecture":"Gaoual","region":"Boke","organization":"","type":"Autres","center":"Karmafassa","center_id":"HM0049","country":"Guinea","longitude":-13.1746998,"latitude":11.1536999}},{"type":"Feature","geometry":{"type":"Point","coordinates":[-13.5015,12.0073]},"properties":{"cartodb_id":38,"place":"Dombiadji","sub_prefecture":"Koumbia","prefecture":"Gaoual","region":"Boke","organization":"","type":"Autres","center":"Dombiadji","center_id":"HM0046","country":"Guinea","longitude":-13.5015001,"latitude":12.0073004}},{"type":"Feature","geometry":{"type":"Point","coordinates":[-13.5465,11.6003]},"properties":{"cartodb_id":39,"place":"Petty","sub_prefecture":"Koumbia","prefecture":"Gaoual","region":"Boke","organization":"","type":"Autres","center":"Pety","center_id":"HM0048","country":"Guinea","longitude":-13.5465002,"latitude":11.6002998}},{"type":"Feature","geometry":{"type":"Point","coordinates":[-12.8797,12.0447]},"properties":{"cartodb_id":40,"place":"Boukouna","sub_prefecture":"Kounsitel ","prefecture":"Gaoual","region":"Boke","organization":"","type":"Autres","center":"Boukouna","center_id":"HM0043","country":"Guinea","longitude":-12.8796997,"latitude":12.0446997}},{"type":"Feature","geometry":{"type":"Point","coordinates":[-12.8727,12.0717]},"properties":{"cartodb_id":41,"place":"Tiekere","sub_prefecture":"Kounsitel ","prefecture":"Gaoual","region":"Boke","organization":"","type":"Autres","center":"Boki","center_id":"HM0044","country":"Guinea","longitude":-12.8726997,"latitude":12.0717001}},{"type":"Feature","geometry":{"type":"Point","coordinates":[-12.7978,11.6667]},"properties":{"cartodb_id":42,"place":"Magnienkouré","sub_prefecture":"Malanta","prefecture":"Gaoual","region":"Boke","organization":"","type":"Autres","center":"Menienkouré","center_id":"HM0980","country":"Guinea","longitude":-12.7978001,"latitude":11.6667004}},{"type":"Feature","geometry":{"type":"Point","coordinates":[-13.7656,11.5775]},"properties":{"cartodb_id":43,"place":"Horé Bendia","sub_prefecture":"Wendou M'Bour","prefecture":"Gaoual","region":"Boke","organization":"","type":"Autres","center":"Horé-Bendia","center_id":"HM0040","country":"Guinea","longitude":-13.7656002,"latitude":11.5775003}},{"type":"Feature","geometry":{"type":"Point","coordinates":[-13.7077,11.4133]},"properties":{"cartodb_id":44,"place":"Maouba","sub_prefecture":"Wendou M'bour (Deliganjan)","prefecture":"Gaoual","region":"Boke","organization":"","type":"Autres","center":"Maouba","center_id":"HM0038","country":"Guinea","longitude":-13.7076998,"latitude":11.4132996}},{"type":"Feature","geometry":{"type":"Point","coordinates":[-13.0658,12.1775]},"properties":{"cartodb_id":45,"place":"Kifaya","sub_prefecture":"Guingan","prefecture":"Koundara","region":"Boke","organization":"","type":"Autres","center":"Kiffaya","center_id":"HM0214","country":"Guinea","longitude":-13.0657997,"latitude":12.1774998}},{"type":"Feature","geometry":{"type":"Point","coordinates":[-13.2616,12.4561]},"properties":{"cartodb_id":46,"place":"Mangaba","sub_prefecture":"Koundara Centre","prefecture":"Koundara","region":"Boke","organization":"","type":"Autres","center":"Mangaba","center_id":"HM0835","country":"Guinea","longitude":-13.2615995,"latitude":12.4561005}},{"type":"Feature","geometry":{"type":"Point","coordinates":[-13.6897,12.6219]},"properties":{"cartodb_id":47,"place":"Missira","sub_prefecture":"Sambailo","prefecture":"Koundara","region":"Boke","organization":"","type":"Autres","center":"Missirah","center_id":"HM0208","country":"Guinea","longitude":-13.6897001,"latitude":12.6218996}},{"type":"Feature","geometry":{"type":"Point","coordinates":[-13.404,10.5133]},"properties":{"cartodb_id":48,"place":"Fandjéta","sub_prefecture":"Baguinet","prefecture":"Fria","region":"Boke","organization":"","type":"Autres","center":"Fandjéta","center_id":"HM0175","country":"Guinea","longitude":-13.4040003,"latitude":10.5132999}},{"type":"Feature","geometry":{"type":"Point","coordinates":[-13.44,10.6635]},"properties":{"cartodb_id":50,"place":"","sub_prefecture":"Baguinet","prefecture":"Fria","region":"Boke","organization":"","type":"Autres","center":"Nari","center_id":"HM0172","country":"Guinea","longitude":-13.4399996,"latitude":10.6634998}},{"type":"Feature","geometry":{"type":"Point","coordinates":[-13.5187,10.7249]},"properties":{"cartodb_id":51,"place":"Toulel","sub_prefecture":"Banguigny","prefecture":"Fria","region":"Boke","organization":"","type":"Autres","center":"Toulel","center_id":"HM0171","country":"Guinea","longitude":-13.5186996,"latitude":10.7249002}},{"type":"Feature","geometry":{"type":"Point","coordinates":[-13.5739,10.3583]},"properties":{"cartodb_id":52,"place":"Aviation","sub_prefecture":"Fria Centre","prefecture":"Fria","region":"Boke","organization":"","type":"Autres","center":"Aviation (N_F)","center_id":"HM0167","country":"Guinea","longitude":-13.5739002,"latitude":10.3583002}},{"type":"Feature","geometry":{"type":"Point","coordinates":[-13.6947,10.5243]},"properties":{"cartodb_id":53,"place":"Fatala","sub_prefecture":"Fria Centre","prefecture":"Fria","region":"Boke","organization":"","type":"Autres","center":"Fatala (N.F)","center_id":"HM0169","country":"Guinea","longitude":-13.6947002,"latitude":10.5242996}},{"type":"Feature","geometry":{"type":"Point","coordinates":[-13.5913,10.4029]},"properties":{"cartodb_id":54,"place":"Tabossi","sub_prefecture":"Fria Centre","prefecture":"Fria","region":"Boke","organization":"","type":"Autres","center":"Tabossy","center_id":"HM0168","country":"Guinea","longitude":-13.5913,"latitude":10.4028997}},{"type":"Feature","geometry":{"type":"Point","coordinates":[-13.7395,10.3959]},"properties":{"cartodb_id":55,"place":"Balandougou","sub_prefecture":"Tormelin","prefecture":"Fria","region":"Boke","organization":"","type":"Autres","center":"Balandougou","center_id":"HM0163","country":"Guinea","longitude":-13.7395,"latitude":10.3958998}},{"type":"Feature","geometry":{"type":"Point","coordinates":[-13.7959,10.2985]},"properties":{"cartodb_id":56,"place":"Doumbou Kounssy (Yékéiakidé, Kaleya Yékéiakidé)","sub_prefecture":"Tormelin","prefecture":"Fria","region":"Boke","organization":"","type":"Autres","center":"Yékherakhidé","center_id":"HM0162","country":"Guinea","longitude":-13.7959003,"latitude":10.2985001}},{"type":"Feature","geometry":{"type":"Point","coordinates":[-14.0414,10.1829]},"properties":{"cartodb_id":57,"place":"Bolonde","sub_prefecture":"Boffa Centre","prefecture":"Boffa","region":"Boke","organization":"GOV","type":"Centre de Sante","center":"Bolonde","center_id":"HM0097","country":"Guinea","longitude":-14.0414,"latitude":10.1829004}},{"type":"Feature","geometry":{"type":"Point","coordinates":[-14.3376,10.2423]},"properties":{"cartodb_id":58,"place":"Douprou Centre","sub_prefecture":"Douprou","prefecture":"Boffa","region":"Boke","organization":"GOV","type":"Centre de Sante","center":"Douprou","center_id":"HM0101","country":"Guinea","longitude":-14.3375998,"latitude":10.2423}},{"type":"Feature","geometry":{"type":"Point","coordinates":[-13.9052,9.95367]},"properties":{"cartodb_id":59,"place":"Koba - Tatéma","sub_prefecture":"Koba","prefecture":"Boffa","region":"Boke","organization":"GOV","type":"Centre de Sante","center":"Tatéma","center_id":"HM0104","country":"Guinea","longitude":-13.9052,"latitude":9.9536695}},{"type":"Feature","geometry":{"type":"Point","coordinates":[-13.8847,9.9491]},"properties":{"cartodb_id":60,"place":"Koba - Tatéma","sub_prefecture":"Koba","prefecture":"Boffa","region":"Boke","organization":"GOV","type":"Centre de Sante","center":"Tatéma","center_id":"HM0105","country":"Guinea","longitude":-13.8846998,"latitude":9.9490995}},{"type":"Feature","geometry":{"type":"Point","coordinates":[-14.053,10.4121]},"properties":{"cartodb_id":61,"place":"Koliah Centre","sub_prefecture":"Kolia","prefecture":"Boffa","region":"Boke","organization":"GOV","type":"Centre de Sante","center":"Colia","center_id":"HM0103","country":"Guinea","longitude":-14.0530005,"latitude":10.4120998}},{"type":"Feature","geometry":{"type":"Point","coordinates":[-13.8961,10.2239]},"properties":{"cartodb_id":62,"place":"Kakara (Cacara)","sub_prefecture":"Lisso","prefecture":"Boffa","region":"Boke","organization":"GOV","type":"Centre de Sante","center":"Lisso Centre","center_id":"HM0110","country":"Guinea","longitude":-13.8961,"latitude":10.2238998}},{"type":"Feature","geometry":{"type":"Point","coordinates":[-13.8745,10.2891]},"properties":{"cartodb_id":63,"place":"Wonditty","sub_prefecture":"Lisso","prefecture":"Boffa","region":"Boke","organization":"GOV","type":"Centre de Sante","center":"Wondetty","center_id":"HM0109","country":"Guinea","longitude":-13.8745003,"latitude":10.2890997}},{"type":"Feature","geometry":{"type":"Point","coordinates":[-14.4118,10.4861]},"properties":{"cartodb_id":64,"place":"Kakala","sub_prefecture":"Mankountan","prefecture":"Boffa","region":"Boke","organization":"GOV","type":"Centre de Sante","center":"Kakala","center_id":"HM0114","country":"Guinea","longitude":-14.4118004,"latitude":10.4861002}},{"type":"Feature","geometry":{"type":"Point","coordinates":[-14.4432,10.5373]},"properties":{"cartodb_id":65,"place":"Mankountan","sub_prefecture":"Mankountan","prefecture":"Boffa","region":"Boke","organization":"GOV","type":"Centre de Sante","center":"Mankountan","center_id":"HM0113","country":"Guinea","longitude":-14.4432001,"latitude":10.5373001}},{"type":"Feature","geometry":{"type":"Point","coordinates":[-13.9421,10.1415]},"properties":{"cartodb_id":66,"place":"Tamita Centre","sub_prefecture":"Tamita","prefecture":"Boffa","region":"Boke","organization":"GOV","type":"Centre de Sante","center":"Tamita","center_id":"HM0115","country":"Guinea","longitude":-13.9420996,"latitude":10.1415005}},{"type":"Feature","geometry":{"type":"Point","coordinates":[-14.4251,10.3955]},"properties":{"cartodb_id":67,"place":"Tougnifily Centre","sub_prefecture":"Tougnifily","prefecture":"Boffa","region":"Boke","organization":"GOV","type":"Centre de Sante","center":"Tougnifily","center_id":"HM0119","country":"Guinea","longitude":-14.4251003,"latitude":10.3955002}},{"type":"Feature","geometry":{"type":"Point","coordinates":[-14.2917,10.9345]},"properties":{"cartodb_id":68,"place":"Dibia","sub_prefecture":"Boke Centre","prefecture":"Boke","region":"Boke","organization":"","type":"Centre de Sante","center":"Dibia","center_id":"HM0125","country":"Guinea","longitude":-14.2917004,"latitude":10.9344997}},{"type":"Feature","geometry":{"type":"Point","coordinates":[-14.54,11.1917]},"properties":{"cartodb_id":69,"place":"Dabiss Centre","sub_prefecture":"Dabiss","prefecture":"Boke","region":"Boke","organization":"","type":"Centre de Sante","center":"Dabiss","center_id":"HM0128","country":"Guinea","longitude":-14.54,"latitude":11.1917}},{"type":"Feature","geometry":{"type":"Point","coordinates":[-14.5376,10.6733]},"properties":{"cartodb_id":70,"place":"Kayenguissa","sub_prefecture":"Kamsar","prefecture":"Boke","region":"Boke","organization":"","type":"Centre de Sante","center":"Kayenguissa","center_id":"HM0131","country":"Guinea","longitude":-14.5375996,"latitude":10.6732998}},{"type":"Feature","geometry":{"type":"Point","coordinates":[-14.6032,10.6739]},"properties":{"cartodb_id":71,"place":"Port de Kamsar","sub_prefecture":"Kamsar","prefecture":"Boke","region":"Boke","organization":"GOV","type":"Centre de Sante","center":"Mohame 6 (Kamsar) Centre de Santé","center_id":"HM0135","country":"Guinea","longitude":-14.6032,"latitude":10.6738997}},{"type":"Feature","geometry":{"type":"Point","coordinates":[-14.5439,10.832501]},"properties":{"cartodb_id":72,"place":"Kanfarande","sub_prefecture":"Kanfarande","prefecture":"Boke","region":"Boke","organization":"","type":"Centre de Sante","center":"Kanfarandé","center_id":"HM0137","country":"Guinea","longitude":-14.5438995,"latitude":10.8325005}},{"type":"Feature","geometry":{"type":"Point","coordinates":[-14.594434,10.671065]},"properties":{"cartodb_id":73,"place":"","sub_prefecture":"Kamsar","prefecture":"Boke","region":"Boke","organization":"","type":"Centre de Sante","center":"CS Kassopo","center_id":"GN-STF109","country":"Guinea","longitude":-14.594434,"latitude":10.671065}},{"type":"Feature","geometry":{"type":"Point","coordinates":[-14.3998,10.7983]},"properties":{"cartodb_id":74,"place":"Kollaboui Centre","sub_prefecture":"Kollaboui","prefecture":"Boke","region":"Boke","organization":"","type":"Centre de Sante","center":"Kolaboui","center_id":"HM0138","country":"Guinea","longitude":-14.3998003,"latitude":10.7982998}},{"type":"Feature","geometry":{"type":"Point","coordinates":[-14.17468,10.7134]},"properties":{"cartodb_id":75,"place":"Malapouya Centre","sub_prefecture":"Malapouya","prefecture":"Boke","region":"Boke","organization":"","type":"Centre de Sante","center":"Malapouya","center_id":"HM0141","country":"Guinea","longitude":-14.17468,"latitude":10.7134}},{"type":"Feature","geometry":{"type":"Point","coordinates":[-13.9598,11.1235]},"properties":{"cartodb_id":76,"place":"Boullere","sub_prefecture":"Sangaredi","prefecture":"Boke","region":"Boke","organization":"","type":"Centre de Sante","center":"Boulléré","center_id":"HM0145","country":"Guinea","longitude":-13.9597998,"latitude":11.1234999}},{"type":"Feature","geometry":{"type":"Point","coordinates":[-13.9227,11.2021]},"properties":{"cartodb_id":77,"place":"Kourawel","sub_prefecture":"Sangaredi","prefecture":"Boke","region":"Boke","organization":"","type":"Centre de Sante","center":"Pétoun Bowè","center_id":"HM0144","country":"Guinea","longitude":-13.9226999,"latitude":11.2020998}},{"type":"Feature","geometry":{"type":"Point","coordinates":[-13.8108,11.1049]},"properties":{"cartodb_id":78,"place":"Sangaredi Centre","sub_prefecture":"Sangaredi","prefecture":"Boke","region":"Boke","organization":"","type":"Centre de Sante","center":"Sangarédi","center_id":"HM0142","country":"Guinea","longitude":-13.8107996,"latitude":11.1049004}},{"type":"Feature","geometry":{"type":"Point","coordinates":[-13.9237,11.0003]},"properties":{"cartodb_id":79,"place":"Soucka","sub_prefecture":"Sangaredi","prefecture":"Boke","region":"Boke","organization":"","type":"Centre de Sante","center":"Soucka","center_id":"HM0147","country":"Guinea","longitude":-13.9237003,"latitude":11.0003004}},{"type":"Feature","geometry":{"type":"Point","coordinates":[-14.8462,11.1149]},"properties":{"cartodb_id":80,"place":"Sansale Centre","sub_prefecture":"Sansale","prefecture":"Boke","region":"Boke","organization":"","type":"Centre de Sante","center":"Sansalé","center_id":"HM0148","country":"Guinea","longitude":-14.8462,"latitude":11.1148996}},{"type":"Feature","geometry":{"type":"Point","coordinates":[-14.2406,11.0139]},"properties":{"cartodb_id":81,"place":"Hamdallaye","sub_prefecture":"Tanene","prefecture":"Boke","region":"Boke","organization":"","type":"Centre de Sante","center":"Hamdallaye","center_id":"HM0427","country":"Guinea","longitude":-14.2405996,"latitude":11.0138998}},{"type":"Feature","geometry":{"type":"Point","coordinates":[-12.962,12.387299]},"properties":{"cartodb_id":82,"place":"Enisian","sub_prefecture":"Guingan","prefecture":"Koundara","region":"Boke","organization":"","type":"Centre de Sante","center":"Guingan","center_id":"HM0213","country":"Guinea","longitude":-12.9619999,"latitude":12.3872995}},{"type":"Feature","geometry":{"type":"Point","coordinates":[-13.4082,12.3979]},"properties":{"cartodb_id":83,"place":"Kamaby","sub_prefecture":"Kamaby","prefecture":"Koundara","region":"Boke","organization":"","type":"Centre de Sante","center":"Kamaby 2","center_id":"HM0211","country":"Guinea","longitude":-13.4082003,"latitude":12.3978996}},{"type":"Feature","geometry":{"type":"Point","coordinates":[-13.3335,12.3757]},"properties":{"cartodb_id":84,"place":"Sare Pate","sub_prefecture":"Kamaby","prefecture":"Koundara","region":"Boke","organization":"","type":"Centre de Sante","center":"Sinthian-Pathé","center_id":"HM0212","country":"Guinea","longitude":-13.3334999,"latitude":12.3757}},{"type":"Feature","geometry":{"type":"Point","coordinates":[-13.2962,12.4861]},"properties":{"cartodb_id":85,"place":"Koundara","sub_prefecture":"Koundara-Centre","prefecture":"Koundara","region":"Boke","organization":"GOV","type":"Centre de Sante","center":"Mosquée (Koundara) Centre de Santé","center_id":"HM0210","country":"Guinea","longitude":-13.2961998,"latitude":12.4861002}},{"type":"Feature","geometry":{"type":"Point","coordinates":[-13.3682,12.5077]},"properties":{"cartodb_id":86,"place":"Sambaldé","sub_prefecture":"Sambailo","prefecture":"Koundara","region":"Boke","organization":"","type":"Centre de Sante","center":"Sambaldé","center_id":"HM0207","country":"Guinea","longitude":-13.3682003,"latitude":12.5077}},{"type":"Feature","geometry":{"type":"Point","coordinates":[-13.5293,12.4033]},"properties":{"cartodb_id":87,"place":"SaréBoïdo","sub_prefecture":"Saréboido","prefecture":"Koundara","region":"Boke","organization":"GOV","type":"Centre de Sante","center":"Saréboïdo Centre de Santé","center_id":"HM0206","country":"Guinea","longitude":-13.5292997,"latitude":12.4033003}},{"type":"Feature","geometry":{"type":"Point","coordinates":[-12.787,12.3177]},"properties":{"cartodb_id":88,"place":"Termessè","sub_prefecture":"Termesse","prefecture":"Koundara","region":"Boke","organization":"","type":"Centre de Sante","center":"Termessè","center_id":"HM0205","country":"Guinea","longitude":-12.7869997,"latitude":12.3177004}},{"type":"Feature","geometry":{"type":"Point","coordinates":[-13.1209,12.5337]},"properties":{"cartodb_id":89,"place":"Youkounkoun","sub_prefecture":"Youkounkoun","prefecture":"Koundara","region":"Boke","organization":"","type":"Centre de Sante","center":"Youkounkoun","center_id":"HM0204","country":"Guinea","longitude":-13.1209002,"latitude":12.5337}},{"type":"Feature","geometry":{"type":"Point","coordinates":[-13.5208,10.4989]},"properties":{"cartodb_id":90,"place":"Baguinet (Banguinet) Centre","sub_prefecture":"Baguinet","prefecture":"Fria","region":"Boke","organization":"GOV","type":"Centre de Sante","center":"Baguinet Centre de Santé","center_id":"HM0173","country":"Guinea","longitude":-13.5207996,"latitude":10.4989004}},{"type":"Feature","geometry":{"type":"Point","coordinates":[-13.6007,10.6757]},"properties":{"cartodb_id":91,"place":"Sodiore","sub_prefecture":"Banguigny","prefecture":"Fria","region":"Boke","organization":"","type":"Centre de Sante","center":"Sodiorè","center_id":"HM0170","country":"Guinea","longitude":-13.6007004,"latitude":10.6757002}},{"type":"Feature","geometry":{"type":"Point","coordinates":[-13.5838,10.3705]},"properties":{"cartodb_id":92,"place":"Tigué","sub_prefecture":"Fria Centre","prefecture":"Fria","region":"Boke","organization":"","type":"Centre de Sante","center":"Tigué","center_id":"HM0166","country":"Guinea","longitude":-13.5838003,"latitude":10.3704996}},{"type":"Feature","geometry":{"type":"Point","coordinates":[-13.583039,10.365802]},"properties":{"cartodb_id":93,"place":"","sub_prefecture":"Fria Centre","prefecture":"Fria","region":"Boke","organization":"","type":"Centre de Sante","center":"CS Sabèndè","center_id":"GN-STF111","country":"Guinea","longitude":-13.583039,"latitude":10.365802}},{"type":"Feature","geometry":{"type":"Point","coordinates":[-13.7218,10.2935]},"properties":{"cartodb_id":94,"place":"Tormelin (Toromélé) Centre","sub_prefecture":"Tormelin","prefecture":"Fria","region":"Boke","organization":"","type":"Centre de Sante","center":"Tormelin","center_id":"HM0161","country":"Guinea","longitude":-13.7217999,"latitude":10.2934999}},{"type":"Feature","geometry":{"type":"Point","coordinates":[-14.0377,10.1812]},"properties":{"cartodb_id":95,"place":"Boffa centre","sub_prefecture":"Boffa centre","prefecture":"Boffa","region":"Boke","organization":"GOV","type":"CSU","center":"Centre de Santé Boffa Centre","center_id":"MOH035","country":"Guinea","longitude":-14.0377,"latitude":10.1812}},{"type":"Feature","geometry":{"type":"Point","coordinates":[-14.2848,10.9409]},"properties":{"cartodb_id":96,"place":"Boke Centre","sub_prefecture":"Boke Centre","prefecture":"Boke","region":"Boke","organization":"GOV","type":"CSU","center":"Centre de Santé Boké Centre","center_id":"MOH036","country":"Guinea","longitude":-14.2848,"latitude":10.9409}},{"type":"Feature","geometry":{"type":"Point","coordinates":[-14.2967,10.9573]},"properties":{"cartodb_id":97,"place":"Boke Correrah","sub_prefecture":"Boke Centre","prefecture":"Boke","region":"Boke","organization":"GOV","type":"CSU","center":"Boké Correrah (Khorera)","center_id":"HM0127","country":"Guinea","longitude":-14.2966995,"latitude":10.9573002}},{"type":"Feature","geometry":{"type":"Point","coordinates":[-13.2,11.7569]},"properties":{"cartodb_id":98,"place":"Gaoual Centre","sub_prefecture":"Gaoual Centre","prefecture":"Gaoual","region":"Boke","organization":"GOV","type":"CSU","center":"Centre de Santé Gaoual","center_id":"HM0053","country":"Guinea","longitude":-13.1999998,"latitude":11.7568998}},{"type":"Feature","geometry":{"type":"Point","coordinates":[-13.8402,12.1605]},"properties":{"cartodb_id":99,"place":"Foula Mori","sub_prefecture":"Foulamory","prefecture":"Gaoual","region":"Boke","organization":"GOV","type":"Health Post","center":"Poste Santé Foulamory","center_id":"HM0055","country":"Guinea","longitude":-13.8402004,"latitude":12.1604996}},{"type":"Feature","geometry":{"type":"Point","coordinates":[-13.6866,12.1791]},"properties":{"cartodb_id":100,"place":"Kithiar","sub_prefecture":"Foulamory","prefecture":"Gaoual","region":"Boke","organization":"","type":"Health Post","center":"Poste Santé Kithiar","center_id":"HM0054","country":"Guinea","longitude":-13.6865997,"latitude":12.1791}},{"type":"Feature","geometry":{"type":"Point","coordinates":[-13.175,11.3117]},"properties":{"cartodb_id":101,"place":"Kakony","sub_prefecture":"Kakony","prefecture":"Gaoual","region":"Boke","organization":"GOV","type":"Health Post","center":"Poste Santé Kakony","center_id":"HM0050","country":"Guinea","longitude":-13.1750002,"latitude":11.3116999}},{"type":"Feature","geometry":{"type":"Point","coordinates":[-13.4926,11.7777]},"properties":{"cartodb_id":102,"place":"Koumbia","sub_prefecture":"Koumbia","prefecture":"Gaoual","region":"Boke","organization":"GOV","type":"Health Post","center":"Poste Santé Koumbia","center_id":"HM0047","country":"Guinea","longitude":-13.4926004,"latitude":11.7777004}},{"type":"Feature","geometry":{"type":"Point","coordinates":[-13.0754,11.8063]},"properties":{"cartodb_id":103,"place":"Kounsitel","sub_prefecture":"Kounsitel ","prefecture":"Gaoual","region":"Boke","organization":"GOV","type":"Health Post","center":"Poste Santé Kounsitel","center_id":"HM0045","country":"Guinea","longitude":-13.0754004,"latitude":11.8063002}},{"type":"Feature","geometry":{"type":"Point","coordinates":[-12.8263,11.484901]},"properties":{"cartodb_id":104,"place":"Malanta","sub_prefecture":"Malanta","prefecture":"Gaoual","region":"Boke","organization":"GOV","type":"Health Post","center":"Poste Santé Malanta","center_id":"HM0042","country":"Guinea","longitude":-12.8262997,"latitude":11.4849005}},{"type":"Feature","geometry":{"type":"Point","coordinates":[-13.0291,11.6011]},"properties":{"cartodb_id":105,"place":"Touba","sub_prefecture":"Touba","prefecture":"Gaoual","region":"Boke","organization":"GOV","type":"Health Post","center":"Poste Santé Touba","center_id":"HM0041","country":"Guinea","longitude":-13.0291004,"latitude":11.6011}},{"type":"Feature","geometry":{"type":"Point","coordinates":[-13.8769,11.4343]},"properties":{"cartodb_id":106,"place":"Wendou M'Bour","sub_prefecture":"Wendou M'bour Centre","prefecture":"Gaoual","region":"Boke","organization":"GOV","type":"Health Post","center":"Poste Santé Wendou M'Bour","center_id":"HM0037","country":"Guinea","longitude":-13.8768997,"latitude":11.4343004}},{"type":"Feature","geometry":{"type":"Point","coordinates":[-14.031,10.1787]},"properties":{"cartodb_id":107,"place":"Boffa","sub_prefecture":"Boffa Centre","prefecture":"Boffa","region":"Boke","organization":"GOV","type":"Hospital","center":"Hôpital Préfectoal Boffa","center_id":"HM0096","country":"Guinea","longitude":-14.0310001,"latitude":10.1787004}},{"type":"Feature","geometry":{"type":"Point","coordinates":[-14.4497,10.6529]},"properties":{"cartodb_id":108,"place":"Bintimodia (Bintoumodia)Centre","sub_prefecture":"Bintimodia","prefecture":"Boke","region":"Boke","organization":"GOV","type":"Hospital","center":"Bintimodia (Bintoumodia) ","center_id":"HM0122","country":"Guinea","longitude":-14.4497004,"latitude":10.6528997}},{"type":"Feature","geometry":{"type":"Point","coordinates":[-14.294722,10.931592]},"properties":{"cartodb_id":109,"place":"Dibia-Gobi","sub_prefecture":"Boke Centre","prefecture":"Boke","region":"Boke","organization":"","type":"Hospital","center":"Hôpital Régional Boke","center_id":"GN-STF018","country":"Guinea","longitude":-14.294722,"latitude":10.931592}},{"type":"Feature","geometry":{"type":"Point","coordinates":[-13.298509,12.485154]},"properties":{"cartodb_id":110,"place":"Koundara","sub_prefecture":"Boke Centre","prefecture":"Boke","region":"Boke","organization":"","type":"Hospital","center":"Hôpital Préfectoral Koundara","center_id":"GN-STF021","country":"Guinea","longitude":-13.298509,"latitude":12.4851543}},{"type":"Feature","geometry":{"type":"Point","coordinates":[-14.613,10.645701]},"properties":{"cartodb_id":111,"place":"Kamsar","sub_prefecture":"Kamsar","prefecture":"Boke","region":"Boke","organization":"","type":"Hospital","center":"Hôpital Compagnie Bauxite Guinee (CBG) Kamsar","center_id":"HM0134","country":"Guinea","longitude":-14.6129999,"latitude":10.6457005}},{"type":"Feature","geometry":{"type":"Point","coordinates":[-13.8137,11.1077]},"properties":{"cartodb_id":113,"place":"Sangaredi Centre","sub_prefecture":"Sangaredi","prefecture":"Boke","region":"Boke","organization":"","type":"Hospital","center":"Hôpital Compagnie Bauxite Guinee (CBG)","center_id":"HM0143","country":"Guinea","longitude":-13.8136997,"latitude":11.1077003}},{"type":"Feature","geometry":{"type":"Point","coordinates":[-13.2004,11.7621]},"properties":{"cartodb_id":114,"place":"Gaoual","sub_prefecture":"Gaoual Centre","prefecture":"Gaoual","region":"Boke","organization":"GOV","type":"Hospital","center":"Hôpital Préfectoral Gaoual","center_id":"HM0052","country":"Guinea","longitude":-13.2004004,"latitude":11.7621002}},{"type":"Feature","geometry":{"type":"Point","coordinates":[-13.2992,12.4917]},"properties":{"cartodb_id":115,"place":"Koundara","sub_prefecture":"Koundara-Centre","prefecture":"Koundara","region":"Boke","organization":"GOV","type":"Hospital","center":"Centre Hospitalier","center_id":"HM0209","country":"Guinea","longitude":-13.2992001,"latitude":12.4917002}},{"type":"Feature","geometry":{"type":"Point","coordinates":[-13.5824,10.3657]},"properties":{"cartodb_id":116,"place":"Fria","sub_prefecture":"Fria Centre","prefecture":"Fria","region":"Boke","organization":"GOV","type":"Hospital","center":"Hôpital préfectoral  Fria","center_id":"HM0164","country":"Guinea","longitude":-13.5824003,"latitude":10.3656998}},{"type":"Feature","geometry":{"type":"Point","coordinates":[-13.5772,10.3697]},"properties":{"cartodb_id":117,"place":"Fria","sub_prefecture":"Fria Centre","prefecture":"Fria","region":"Boke","organization":"","type":"Hospital","center":"Hôpital Péchiney","center_id":"HM0165","country":"Guinea","longitude":-13.5771999,"latitude":10.3697004}},{"type":"Feature","geometry":{"type":"Point","coordinates":[-13.768272,11.097974]},"properties":{"cartodb_id":118,"place":"","sub_prefecture":"Sangaredi","prefecture":"Boke","region":"Boke","organization":"","type":"Unknown","center":"Dispensaire CBG","center_id":"GN-STF110","country":"Guinea","longitude":-13.768272,"latitude":11.097974}},{"type":"Feature","geometry":{"type":"Point","coordinates":[-13.5913,11.4443]},"properties":{"cartodb_id":119,"place":"Barkèrè","sub_prefecture":"Wendou M'bour (Deliganjan, Sangaréyah)","prefecture":"Gaoual","region":"Boke","organization":"","type":"Unknown","center":"Barkèrè","center_id":"HM0039","country":"Guinea","longitude":-13.5913,"latitude":11.4442997}},{"type":"Feature","geometry":{"type":"Point","coordinates":[-13.6563,9.56708]},"properties":{"cartodb_id":120,"place":"Hafia","sub_prefecture":"Dixinn","prefecture":"Conakry","region":"Conakry","organization":"","type":"Autres","center":"Poste De Santé Hafia Ii","center_id":"HM1013","country":"Guinea","longitude":-13.6562996,"latitude":9.5670795}},{"type":"Feature","geometry":{"type":"Point","coordinates":[-13.6549,9.55829]},"properties":{"cartodb_id":121,"place":"Hafia","sub_prefecture":"Dixinn","prefecture":"Conakry","region":"Conakry","organization":"","type":"Autres","center":"Poste De Santé Hafia Mosquée","center_id":"HM1015","country":"Guinea","longitude":-13.6548996,"latitude":9.5582895}},{"type":"Feature","geometry":{"type":"Point","coordinates":[-13.712222,9.509167]},"properties":{"cartodb_id":122,"place":"Sandervalia","sub_prefecture":"Kaloum","prefecture":"Conakry","region":"Conakry","organization":"","type":"Autres","center":"SES / Equitech","center_id":"GN-STF092","country":"Guinea","longitude":-13.712222,"latitude":9.5091668}},{"type":"Feature","geometry":{"type":"Point","coordinates":[-13.6614,9.5553]},"properties":{"cartodb_id":123,"place":"Hafiya","sub_prefecture":"Ratoma","prefecture":"Conakry","region":"Conakry","organization":"","type":"Autres","center":"Poste De Santé","center_id":"HM1008","country":"Guinea","longitude":-13.6613998,"latitude":9.5552998}},{"type":"Feature","geometry":{"type":"Point","coordinates":[-13.5577,9.66931]},"properties":{"cartodb_id":124,"place":"Sonfonia Garé","sub_prefecture":"Ratoma","prefecture":"Conakry","region":"Conakry","organization":"","type":"Autres","center":"Poste De Santé","center_id":"HM1039","country":"Guinea","longitude":-13.5577002,"latitude":9.6693096}},{"type":"Feature","geometry":{"type":"Point","coordinates":[-13.6621,9.56671]},"properties":{"cartodb_id":125,"place":"Taouyah ?","sub_prefecture":"Ratoma","prefecture":"Conakry","region":"Conakry","organization":"","type":"Autres","center":"Poste De Santé Chinois","center_id":"HM1016","country":"Guinea","longitude":-13.6620998,"latitude":9.5667105}},{"type":"Feature","geometry":{"type":"Point","coordinates":[-13.683744,9.537468]},"properties":{"cartodb_id":126,"place":"Camayenne","sub_prefecture":"Dixinn","prefecture":"Conakry","region":"Conakry","organization":"","type":"Blood Transfusion Center","center":"Centre National de Transfusion de Sang","center_id":"GN-STF087","country":"Guinea","longitude":-13.6837441,"latitude":9.537468}},{"type":"Feature","geometry":{"type":"Point","coordinates":[-13.6714,9.54773]},"properties":{"cartodb_id":127,"place":"Dixin Centre","sub_prefecture":"Dixinn","prefecture":"Conakry","region":"Conakry","organization":"","type":"Centre de Sante","center":"Centre De Santé Dixinn","center_id":"HM1011","country":"Guinea","longitude":-13.6714001,"latitude":9.5477304}},{"type":"Feature","geometry":{"type":"Point","coordinates":[-13.6589,9.56232]},"properties":{"cartodb_id":128,"place":"Hafia","sub_prefecture":"Dixinn","prefecture":"Conakry","region":"Conakry","organization":"","type":"Centre de Sante","center":"Centre De Santé Hafia I ","center_id":"HM1012","country":"Guinea","longitude":-13.6589003,"latitude":9.5623198}},{"type":"Feature","geometry":{"type":"Point","coordinates":[-13.6529,9.56152]},"properties":{"cartodb_id":129,"place":"Hafia","sub_prefecture":"Dixinn","prefecture":"Conakry","region":"Conakry","organization":"","type":"Centre de Sante","center":"Poste De Santé","center_id":"HM1014","country":"Guinea","longitude":-13.6528997,"latitude":9.5615196}},{"type":"Feature","geometry":{"type":"Point","coordinates":[-13.6654,9.55011]},"properties":{"cartodb_id":130,"place":"Maciré","sub_prefecture":"Dixinn","prefecture":"Conakry","region":"Conakry","organization":"","type":"Centre de Sante","center":"Centre De Santé Maciré","center_id":"HM1010","country":"Guinea","longitude":-13.6653996,"latitude":9.5501099}},{"type":"Feature","geometry":{"type":"Point","coordinates":[-13.8312,9.4707]},"properties":{"cartodb_id":131,"place":"Boom Island","sub_prefecture":"Kaloum","prefecture":"Conakry","region":"Conakry","organization":"","type":"Centre de Sante","center":"Centre De Santé De Boom","center_id":"HM1020","country":"Guinea","longitude":-13.8311996,"latitude":9.4707003}},{"type":"Feature","geometry":{"type":"Point","coordinates":[-13.7161,9.50812]},"properties":{"cartodb_id":132,"place":"Boulbinet","sub_prefecture":"Kaloum","prefecture":"Conakry","region":"Conakry","organization":"","type":"Centre de Sante","center":"Centre De Santé De Boulbinet","center_id":"HM1017","country":"Guinea","longitude":-13.7160997,"latitude":9.5081196}},{"type":"Feature","geometry":{"type":"Point","coordinates":[-13.747854,9.477021]},"properties":{"cartodb_id":133,"place":"Cité de Kassa","sub_prefecture":"Kaloum","prefecture":"Conakry","region":"Conakry","organization":"GOV","type":"Centre de Sante","center":"Centre de santé Kassa","center_id":"MOH001","country":"Guinea","longitude":-13.7478538,"latitude":9.4770211}},{"type":"Feature","geometry":{"type":"Point","coordinates":[-13.712222,9.509167]},"properties":{"cartodb_id":134,"place":"Coronthie","sub_prefecture":"Kaloum","prefecture":"Conakry","region":"Conakry","organization":"GOV","type":"Centre de Sante","center":"Centre de santé mère et enfant de Coronthie","center_id":"GN-STF069","country":"Guinea","longitude":-13.712222,"latitude":9.5091668}},{"type":"Feature","geometry":{"type":"Point","coordinates":[-13.8026,9.50568]},"properties":{"cartodb_id":135,"place":"Fotoba","sub_prefecture":"Kaloum","prefecture":"Conakry","region":"Conakry","organization":"","type":"Centre de Sante","center":"Centre De Santé De Fotoba","center_id":"HM1021","country":"Guinea","longitude":-13.8025999,"latitude":9.5056801}},{"type":"Feature","geometry":{"type":"Point","coordinates":[-13.712222,9.509167]},"properties":{"cartodb_id":136,"place":"Kaloum","sub_prefecture":"Kaloum","prefecture":"Conakry","region":"Conakry","organization":"GOV","type":"Centre de Sante","center":"Centre Medico Communal Bernard Kouchner","center_id":"GN-STF068","country":"Guinea","longitude":-13.712222,"latitude":9.5091668}},{"type":"Feature","geometry":{"type":"Point","coordinates":[-13.7915,9.46393]},"properties":{"cartodb_id":137,"place":"Kassa","sub_prefecture":"Kaloum","prefecture":"Conakry","region":"Conakry","organization":"","type":"Centre de Sante","center":"Centre De Santé De Room","center_id":"HM1022","country":"Guinea","longitude":-13.7915001,"latitude":9.4639301}},{"type":"Feature","geometry":{"type":"Point","coordinates":[-13.7057,9.50928]},"properties":{"cartodb_id":138,"place":"Koulewondy","sub_prefecture":"Kaloum","prefecture":"Conakry","region":"Conakry","organization":"","type":"Centre de Sante","center":"Centre De Santé De Kouléwondy","center_id":"HM1018","country":"Guinea","longitude":-13.7056999,"latitude":9.5092802}},{"type":"Feature","geometry":{"type":"Point","coordinates":[-13.66006,9.544438]},"properties":{"cartodb_id":139,"place":"Port de Boussoura?","sub_prefecture":"Kaloum","prefecture":"Conakry","region":"Conakry","organization":"Gov","type":"Centre de Sante","center":"Centre de santé Port","center_id":"MOH002","country":"Guinea","longitude":-13.66006,"latitude":9.544438}},{"type":"Feature","geometry":{"type":"Point","coordinates":[-13.6692,9.53851]},"properties":{"cartodb_id":140,"place":"Coleah","sub_prefecture":"Matam","prefecture":"Conakry","region":"Conakry","organization":"","type":"Centre de Sante","center":"Centre De Santé","center_id":"HM1025","country":"Guinea","longitude":-13.6691999,"latitude":9.5385103}},{"type":"Feature","geometry":{"type":"Point","coordinates":[-13.66726,9.542362]},"properties":{"cartodb_id":141,"place":"Madina","sub_prefecture":"Matam","prefecture":"Conakry","region":"Conakry","organization":"GOV","type":"Centre de Sante","center":"Centre de santé Madina","center_id":"MOH003","country":"Guinea","longitude":-13.66726,"latitude":9.542362}},{"type":"Feature","geometry":{"type":"Point","coordinates":[-13.6513,9.55292]},"properties":{"cartodb_id":142,"place":"Matam","sub_prefecture":"Matam","prefecture":"Conakry","region":"Conakry","organization":"","type":"Centre de Sante","center":"Centre De Santé De Matam","center_id":"HM1026","country":"Guinea","longitude":-13.6513004,"latitude":9.5529203}},{"type":"Feature","geometry":{"type":"Point","coordinates":[-13.6339,9.57629]},"properties":{"cartodb_id":144,"place":"Dar Es Salam","sub_prefecture":"Matoto","prefecture":"Conakry","region":"Conakry","organization":"","type":"Centre de Sante","center":"Dar-Es-Salam - 1","center_id":"HM1033","country":"Guinea","longitude":-13.6338997,"latitude":9.5762901}},{"type":"Feature","geometry":{"type":"Point","coordinates":[-13.646096,9.580499]},"properties":{"cartodb_id":145,"place":"Dar Es Salam","sub_prefecture":"Matoto","prefecture":"Conakry","region":"Conakry","organization":"","type":"Centre de Sante","center":"Centre De Santé","center_id":"HM1040","country":"Guinea","longitude":-13.6460962,"latitude":9.5804987}},{"type":"Feature","geometry":{"type":"Point","coordinates":[-13.6505,9.57172]},"properties":{"cartodb_id":146,"place":"Dar Es Salam","sub_prefecture":"Matoto","prefecture":"Conakry","region":"Conakry","organization":"","type":"Centre de Sante","center":"Centre De Santé","center_id":"HM1041","country":"Guinea","longitude":-13.6505003,"latitude":9.5717201}},{"type":"Feature","geometry":{"type":"Point","coordinates":[-13,9]},"properties":{"cartodb_id":147,"place":"Enta Sud","sub_prefecture":"Matoto","prefecture":"Conakry","region":"Conakry","organization":"GOV","type":"Centre de Sante","center":"Centre de Santé Enta Sud","center_id":"MOH010","country":"Guinea","longitude":null,"latitude":null}},{"type":"Feature","geometry":{"type":"Point","coordinates":[-13.6285,9.56128]},"properties":{"cartodb_id":148,"place":"Gbessia Port","sub_prefecture":"Matoto","prefecture":"Conakry","region":"Conakry","organization":"","type":"Centre de Sante","center":"Gbessia Port","center_id":"HM1034","country":"Guinea","longitude":-13.6285,"latitude":9.5612803}},{"type":"Feature","geometry":{"type":"Point","coordinates":[-13.5672,9.6293]},"properties":{"cartodb_id":149,"place":"Kissosso","sub_prefecture":"Matoto","prefecture":"Conakry","region":"Conakry","organization":"","type":"Centre de Sante","center":"Cabinet Medical Chirurgical Associatif De Kissosso","center_id":"GN-STF089","country":"Guinea","longitude":-13.5672,"latitude":9.6293}},{"type":"Feature","geometry":{"type":"Point","coordinates":[-13,9]},"properties":{"cartodb_id":150,"place":"Matoto Centre","sub_prefecture":"Matoto","prefecture":"Conakry","region":"Conakry","organization":"GOV","type":"Centre de Sante","center":"Centre de Santé Matoto Centre","center_id":"MOH011","country":"Guinea","longitude":null,"latitude":null}},{"type":"Feature","geometry":{"type":"Point","coordinates":[-13,9]},"properties":{"cartodb_id":151,"place":"Ténene","sub_prefecture":"Matoto","prefecture":"Conakry","region":"Conakry","organization":"GOV","type":"Centre de Sante","center":"Centre de Santé Tanéné","center_id":"MOH012","country":"Guinea","longitude":null,"latitude":null}},{"type":"Feature","geometry":{"type":"Point","coordinates":[-13.5517,9.6485]},"properties":{"cartodb_id":152,"place":"Tomboleya","sub_prefecture":"Matoto","prefecture":"Conakry","region":"Conakry","organization":"","type":"Centre de Sante","center":"Centre Recherche Fodé S","center_id":"HM1029","country":"Guinea","longitude":-13.5516996,"latitude":9.6485004}},{"type":"Feature","geometry":{"type":"Point","coordinates":[-13.564,9.6449]},"properties":{"cartodb_id":153,"place":"Tomboleya","sub_prefecture":"Matoto","prefecture":"Conakry","region":"Conakry","organization":"","type":"Centre de Sante","center":"Tombolia - Marché","center_id":"HM1030","country":"Guinea","longitude":-13.5640001,"latitude":9.6449003}},{"type":"Feature","geometry":{"type":"Point","coordinates":[-13.589264,9.613511]},"properties":{"cartodb_id":154,"place":"","sub_prefecture":"Matoto","prefecture":"Conakry","region":"Conakry","organization":"","type":"Centre de Sante","center":"Dispensaire Saint Gabriel","center_id":"GN-STF113","country":"Guinea","longitude":-13.5892644,"latitude":9.6135113}},{"type":"Feature","geometry":{"type":"Point","coordinates":[-13.6585,9.58429]},"properties":{"cartodb_id":155,"place":"Carrefour Transit","sub_prefecture":"Ratoma","prefecture":"Conakry","region":"Conakry","organization":"","type":"Centre de Sante","center":"Dispensaire Maternité","center_id":"HM1047","country":"Guinea","longitude":-13.6584997,"latitude":9.5842896}},{"type":"Feature","geometry":{"type":"Point","coordinates":[-13.6462,9.61292]},"properties":{"cartodb_id":156,"place":"Kaporo","sub_prefecture":"Ratoma","prefecture":"Conakry","region":"Conakry","organization":"","type":"Centre de Sante","center":"Centre De Santé Kaporo","center_id":"HM1042","country":"Guinea","longitude":-13.6462002,"latitude":9.6129198}},{"type":"Feature","geometry":{"type":"Point","coordinates":[-13.640714,9.60247]},"properties":{"cartodb_id":157,"place":"Kipe","sub_prefecture":"Ratoma","prefecture":"Conakry","region":"Conakry","organization":"","type":"Centre de Sante","center":"Clinique Mère et Enfant","center_id":"GN-STF063","country":"Guinea","longitude":-13.6407142,"latitude":9.6024704}},{"type":"Feature","geometry":{"type":"Point","coordinates":[-13.6393,9.59808]},"properties":{"cartodb_id":158,"place":"Kipe","sub_prefecture":"Ratoma","prefecture":"Conakry","region":"Conakry","organization":"","type":"Centre de Sante","center":"Centre De Santé Kipe","center_id":"HM1043","country":"Guinea","longitude":-13.6393003,"latitude":9.5980797}},{"type":"Feature","geometry":{"type":"Point","coordinates":[-13.6406,9.60211]},"properties":{"cartodb_id":159,"place":"Kipe","sub_prefecture":"Ratoma","prefecture":"Conakry","region":"Conakry","organization":"","type":"Centre de Sante","center":"Clinique Mère Et Enfants","center_id":"HM1044","country":"Guinea","longitude":-13.6406002,"latitude":9.6021099}},{"type":"Feature","geometry":{"type":"Point","coordinates":[-13.602567,9.661432]},"properties":{"cartodb_id":160,"place":"Kobaya","sub_prefecture":"Ratoma","prefecture":"Conakry","region":"Conakry","organization":"GOV","type":"Centre de Sante","center":"Centre de Santé Kobaya","center_id":"MOH004","country":"Guinea","longitude":-13.602567,"latitude":9.6614322}},{"type":"Feature","geometry":{"type":"Point","coordinates":[-13.6271,9.59692]},"properties":{"cartodb_id":162,"place":"Koloma","sub_prefecture":"Ratoma","prefecture":"Conakry","region":"Conakry","organization":"","type":"Centre de Sante","center":"Centre De Santé Soloprimo","center_id":"HM1045","country":"Guinea","longitude":-13.6271,"latitude":9.59692}},{"type":"Feature","geometry":{"type":"Point","coordinates":[-13.6224,9.58981]},"properties":{"cartodb_id":163,"place":"Koloma","sub_prefecture":"Ratoma","prefecture":"Conakry","region":"Conakry","organization":"GOV","type":"Centre de Sante","center":"Centre de Santé Koloma","center_id":"MOH005","country":"Guinea","longitude":-13.6224,"latitude":9.58981}},{"type":"Feature","geometry":{"type":"Point","coordinates":[-13.6206,9.63751]},"properties":{"cartodb_id":164,"place":"Lambanyi","sub_prefecture":"Ratoma","prefecture":"Conakry","region":"Conakry","organization":"","type":"Centre de Sante","center":"Santé Arc-En-Ciel","center_id":"HM1036","country":"Guinea","longitude":-13.6205997,"latitude":9.6375103}},{"type":"Feature","geometry":{"type":"Point","coordinates":[-13.61382,9.64494]},"properties":{"cartodb_id":165,"place":"Lambanyi","sub_prefecture":"Ratoma","prefecture":"Conakry","region":"Conakry","organization":"GOV","type":"Centre de Sante","center":"Centre de Santé Lambanyi","center_id":"MOH006","country":"Guinea","longitude":-13.61382,"latitude":9.64494}},{"type":"Feature","geometry":{"type":"Point","coordinates":[-13.6386,9.61389]},"properties":{"cartodb_id":166,"place":"Nongo","sub_prefecture":"Ratoma","prefecture":"Conakry","region":"Conakry","organization":"","type":"Centre de Sante","center":"Centre De Santé Nongo","center_id":"HM1046","country":"Guinea","longitude":-13.6386003,"latitude":9.6138897}},{"type":"Feature","geometry":{"type":"Point","coordinates":[-13.6137,9.60791]},"properties":{"cartodb_id":167,"place":"Simbaya","sub_prefecture":"Ratoma","prefecture":"Conakry","region":"Conakry","organization":"","type":"Centre de Sante","center":"Centre De Santé Simbaya","center_id":"HM1049","country":"Guinea","longitude":-13.6136999,"latitude":9.6079102}},{"type":"Feature","geometry":{"type":"Point","coordinates":[-13.60267,9.61257]},"properties":{"cartodb_id":168,"place":"Simbaya Gare","sub_prefecture":"Ratoma","prefecture":"Conakry","region":"Conakry","organization":"GOV","type":"Centre de Sante","center":"Centre de Santé Simbaya Gare","center_id":"MOH007","country":"Guinea","longitude":-13.60267,"latitude":9.61257}},{"type":"Feature","geometry":{"type":"Point","coordinates":[-13,9]},"properties":{"cartodb_id":169,"place":"Sonfonia","sub_prefecture":"Ratoma","prefecture":"Conakry","region":"Conakry","organization":"GOV","type":"Centre de Sante","center":"Centre de Santé Sonfonia","center_id":"MOH008","country":"Guinea","longitude":null,"latitude":null}},{"type":"Feature","geometry":{"type":"Point","coordinates":[-13.571999,9.67987]},"properties":{"cartodb_id":170,"place":"Tamouta, Yimbaya?","sub_prefecture":"Ratoma","prefecture":"Conakry","region":"Conakry","organization":"","type":"Centre de Sante","center":"Centre De Santé Tamouta","center_id":"HM1038","country":"Guinea","longitude":-13.5719995,"latitude":9.6798697}},{"type":"Feature","geometry":{"type":"Point","coordinates":[-13.6588,9.56689]},"properties":{"cartodb_id":171,"place":"Taouyah","sub_prefecture":"Ratoma","prefecture":"Conakry","region":"Conakry","organization":"","type":"Centre de Sante","center":"Centre De Santé Belle-Vue Coloyah","center_id":"HM1007","country":"Guinea","longitude":-13.6588001,"latitude":9.5668898}},{"type":"Feature","geometry":{"type":"Point","coordinates":[-13.5899,9.6323]},"properties":{"cartodb_id":172,"place":"Wanindara","sub_prefecture":"Ratoma","prefecture":"Conakry","region":"Conakry","organization":"GOV","type":"Centre de Sante","center":"Centre de Santé Wanindara","center_id":"MOH009","country":"Guinea","longitude":-13.5899,"latitude":9.6323}},{"type":"Feature","geometry":{"type":"Point","coordinates":[-13.6197,9.62073]},"properties":{"cartodb_id":173,"place":"Yembeyia","sub_prefecture":"Ratoma","prefecture":"Conakry","region":"Conakry","organization":"","type":"Centre de Sante","center":"Centre De Santé Yembeyia","center_id":"HM1037","country":"Guinea","longitude":-13.6197004,"latitude":9.6207304}},{"type":"Feature","geometry":{"type":"Point","coordinates":[-13.6589,9.56232]},"properties":{"cartodb_id":174,"place":"Hafia Minière","sub_prefecture":"Dixinn","prefecture":"Conakry","region":"Conakry","organization":"","type":"Centre Medical Communal","center":"CMC Minière","center_id":"GN-STF025","country":"Guinea","longitude":-13.6589003,"latitude":9.5623198}},{"type":"Feature","geometry":{"type":"Point","coordinates":[-13.6787,9.53571]},"properties":{"cartodb_id":175,"place":"Coleah","sub_prefecture":"Matam","prefecture":"Conakry","region":"Conakry","organization":"","type":"Centre Medical Communal","center":"Centre De Santé Communal De Coléah","center_id":"HM1023","country":"Guinea","longitude":-13.6787004,"latitude":9.5357103}},{"type":"Feature","geometry":{"type":"Point","coordinates":[-13.6557,9.5892]},"properties":{"cartodb_id":176,"place":"Ratoma","sub_prefecture":"Ratoma","prefecture":"Conakry","region":"Conakry","organization":"","type":"Centre Medical Communal","center":"CMC Ratoma","center_id":"GN-STF030","country":"Guinea","longitude":-13.6557,"latitude":9.5892}},{"type":"Feature","geometry":{"type":"Point","coordinates":[-13.6557,9.5892]},"properties":{"cartodb_id":177,"place":"Conakry ","sub_prefecture":"Ratoma ","prefecture":"Conakry","region":"Conakry","organization":"","type":"Centre Medical Communal","center":"CMC Flamboyant","center_id":"GN-STF029","country":"Guinea","longitude":-13.6557,"latitude":9.5892}},{"type":"Feature","geometry":{"type":"Point","coordinates":[-13.717434,9.506589]},"properties":{"cartodb_id":178,"place":"Conakry","sub_prefecture":"Dixinn","prefecture":"Conakry","region":"Conakry","organization":"","type":"Clinic","center":"Clinique Pasteur","center_id":"GN-STF009","country":"Guinea","longitude":-13.7174345,"latitude":9.5065887}},{"type":"Feature","geometry":{"type":"Point","coordinates":[-13.71167,9.50749]},"properties":{"cartodb_id":179,"place":"Manquepas","sub_prefecture":"Kaloum","prefecture":"Conakry","region":"Conakry","organization":"","type":"Clinic","center":"Cabinet Medical Dr Brigith Accar","center_id":"GN-STF085","country":"Guinea","longitude":-13.71167,"latitude":9.50749}},{"type":"Feature","geometry":{"type":"Point","coordinates":[-13.5475,9.6453]},"properties":{"cartodb_id":180,"place":"Conakry","sub_prefecture":"Matoto","prefecture":"Conakry","region":"Conakry","organization":"","type":"Clinic","center":"Clinique Neurologique","center_id":"GN-STF091","country":"Guinea","longitude":-13.5475,"latitude":9.6453}},{"type":"Feature","geometry":{"type":"Point","coordinates":[-13.610785,9.575737]},"properties":{"cartodb_id":181,"place":"Gbessia","sub_prefecture":"Matoto","prefecture":"Conakry","region":"Conakry","organization":"","type":"Clinic","center":"Cabinet D'Assistance Medico-Sociale","center_id":"GN-STF086","country":"Guinea","longitude":-13.6107853,"latitude":9.5757371}},{"type":"Feature","geometry":{"type":"Point","coordinates":[-13.654,9.5881]},"properties":{"cartodb_id":182,"place":"Conakry","sub_prefecture":"Ratoma","prefecture":"Conakry","region":"Conakry","organization":"","type":"Clinic","center":"CIMED","center_id":"GN-STF072","country":"Guinea","longitude":-13.654,"latitude":9.5881}},{"type":"Feature","geometry":{"type":"Point","coordinates":[-13.649911,9.583241]},"properties":{"cartodb_id":183,"place":"Ratoma","sub_prefecture":"Ratoma","prefecture":"Conakry","region":"Conakry","organization":"","type":"Clinic","center":"CABINET MEDICAL DR KEMO CONDE","center_id":"GN-STF119","country":"Guinea","longitude":-13.649911,"latitude":9.583241}},{"type":"Feature","geometry":{"type":"Point","coordinates":[-13.649911,9.583241]},"properties":{"cartodb_id":184,"place":"Ratoma","sub_prefecture":"Ratoma","prefecture":"Conakry","region":"Conakry","organization":"","type":"Clinic","center":"CLINICAL LAB MED","center_id":"GN-STF120","country":"Guinea","longitude":-13.649911,"latitude":9.583241}},{"type":"Feature","geometry":{"type":"Point","coordinates":[-13.612373,9.576394]},"properties":{"cartodb_id":185,"place":"Tombolla","sub_prefecture":"Matoto","prefecture":"Conakry","region":"Conakry","organization":"","type":"Clinic","center":"CENTRE DE SANTE DE OISEEN","center_id":"GN-STF116","country":"Guinea","longitude":-13.612373,"latitude":9.576394}},{"type":"Feature","geometry":{"type":"Point","coordinates":[-13.672385,9.551126]},"properties":{"cartodb_id":186,"place":"Conakry","sub_prefecture":"Dixinn","prefecture":"Conakry","region":"Conakry","organization":"","type":"Clinique Vétérinaire","center":"Cabinet et Pharmacie Veterinaire","center_id":"GN-STF002","country":"Guinea","longitude":-13.672385,"latitude":9.551126}},{"type":"Feature","geometry":{"type":"Point","coordinates":[-13.593396,9.609019]},"properties":{"cartodb_id":187,"place":"Conakry","sub_prefecture":"Matoto","prefecture":"Conakry","region":"Conakry","organization":"","type":"Dispensary","center":"Dispensaire SBK","center_id":"GN-STF095","country":"Guinea","longitude":-13.5933962,"latitude":9.609019}},{"type":"Feature","geometry":{"type":"Point","coordinates":[-13.6555,9.5498]},"properties":{"cartodb_id":188,"place":"Corniche Madina","sub_prefecture":"Matam","prefecture":"Conakry","region":"Conakry","organization":"","type":"Health Clinic","center":"Cabinet De Soins","center_id":"GN-STF088","country":"Guinea","longitude":-13.6555,"latitude":9.5498}},{"type":"Feature","geometry":{"type":"Point","coordinates":[-13.704988,9.506562]},"properties":{"cartodb_id":189,"place":"Conakry","sub_prefecture":"Kaloum","prefecture":"Conakry","region":"Conakry","organization":"","type":"Hospital","center":"Hôpital National Ignace Deen (Ballay Hospital)","center_id":"HM1073","country":"Guinea","longitude":-13.7049876,"latitude":9.5065618}},{"type":"Feature","geometry":{"type":"Point","coordinates":[-13.704988,9.506562]},"properties":{"cartodb_id":190,"place":"Conakry","sub_prefecture":"Kaloum","prefecture":"Conakry","region":"Conakry","organization":"","type":"Hospital","center":"Hôpital National Ignace Deen + line 1143","center_id":"GN-STF023","country":"Guinea","longitude":-13.7049876,"latitude":9.5065618}},{"type":"Feature","geometry":{"type":"Point","coordinates":[-13.683182,9.535659]},"properties":{"cartodb_id":191,"place":"Conarky","sub_prefecture":"Dixinn","prefecture":"Conakry","region":"Conakry","organization":"","type":"Hospital","center":"Hôpital Préfectoral Dubreka","center_id":"GN-STF039","country":"Guinea","longitude":-13.683182,"latitude":9.535659}},{"type":"Feature","geometry":{"type":"Point","coordinates":[-13.688356,9.527925]},"properties":{"cartodb_id":192,"place":"Conakry","sub_prefecture":"Dixinn","prefecture":"Conakry","region":"Conakry","organization":"","type":"Hospital","center":"Clinique Ambroise Paré","center_id":"GN-STF011","country":"Guinea","longitude":-13.688356,"latitude":9.527925}},{"type":"Feature","geometry":{"type":"Point","coordinates":[-13.68291,9.53628]},"properties":{"cartodb_id":193,"place":"Donka","sub_prefecture":"Dixinn","prefecture":"Conakry","region":"Conakry","organization":"MSF","type":"Hospital","center":"Hôpital National Donka","center_id":"GuiDon","country":"Guinea","longitude":-13.68291,"latitude":9.53628}},{"type":"Feature","geometry":{"type":"Point","coordinates":[-13.7055,9.50848]},"properties":{"cartodb_id":194,"place":"Tombo Island","sub_prefecture":"Kaloum","prefecture":"Conakry","region":"Conakry","organization":"","type":"Hospital","center":"Hôpital National Ignace Deen","center_id":"HM1019","country":"Guinea","longitude":-13.7054996,"latitude":9.5084801}},{"type":"Feature","geometry":{"type":"Point","coordinates":[-13.699923,9.517125]},"properties":{"cartodb_id":195,"place":"Tombo Island","sub_prefecture":"Kaloum","prefecture":"Conakry","region":"Conakry","organization":"","type":"Hospital","center":"Polyclinic Fei-Tsoei","center_id":"HM1057","country":"Guinea","longitude":-13.6999235,"latitude":9.5171253}},{"type":"Feature","geometry":{"type":"Point","coordinates":[-13.6492,9.5522]},"properties":{"cartodb_id":196,"place":"Matam","sub_prefecture":"Matam","prefecture":"Conakry","region":"Conakry","organization":"","type":"Hospital","center":"Centre Medical Communal Matam","center_id":"GN-STF074","country":"Guinea","longitude":-13.6492,"latitude":9.5522}},{"type":"Feature","geometry":{"type":"Point","coordinates":[-13.5475,9.6453]},"properties":{"cartodb_id":197,"place":"Conakry","sub_prefecture":"Matoto","prefecture":"Conakry","region":"Conakry","organization":"","type":"Hospital","center":"Clinique Medical de Gbessia","center_id":"GN-STF090","country":"Guinea","longitude":-13.5475,"latitude":9.6453}},{"type":"Feature","geometry":{"type":"Point","coordinates":[-13.5475,9.6453]},"properties":{"cartodb_id":198,"place":"Conakry","sub_prefecture":"Matoto","prefecture":"Conakry","region":"Conakry","organization":"","type":"Hospital","center":"Ciba","center_id":"GN-STF096","country":"Guinea","longitude":-13.5475,"latitude":9.6453}},{"type":"Feature","geometry":{"type":"Point","coordinates":[-13.6218,9.58008]},"properties":{"cartodb_id":199,"place":"Gbessia","sub_prefecture":"Matoto","prefecture":"Conakry","region":"Conakry","organization":"","type":"Hospital","center":"Clinique Médicale De Gbéssia - Centre Médical Internationale","center_id":"HM1031","country":"Guinea","longitude":-13.6218004,"latitude":9.58008}},{"type":"Feature","geometry":{"type":"Point","coordinates":[-13.5934,9.609]},"properties":{"cartodb_id":200,"place":"Kondebounyi","sub_prefecture":"Matoto","prefecture":"Conakry","region":"Conakry","organization":"","type":"Hospital","center":"Hôpital AISSA","center_id":"GN-STF073","country":"Guinea","longitude":-13.5934,"latitude":9.609}},{"type":"Feature","geometry":{"type":"Point","coordinates":[-13.655713,9.589171]},"properties":{"cartodb_id":201,"place":"Conakry","sub_prefecture":"Ratoma","prefecture":"Conakry","region":"Conakry","organization":"","type":"Hospital","center":"Centre de Sante la Grace","center_id":"HM1069","country":"Guinea","longitude":-13.655713,"latitude":9.5891714}},{"type":"Feature","geometry":{"type":"Point","coordinates":[-13.64778,9.59882]},"properties":{"cartodb_id":202,"place":"Kipe","sub_prefecture":"Ratoma","prefecture":"Conakry","region":"Conakry","organization":"GOV, WHO","type":"Hospital","center":"Hôpital de l'Amitié Sino-Guinéenne","center_id":"GN-STF006","country":"Guinea","longitude":-13.64778,"latitude":9.59882}},{"type":"Feature","geometry":{"type":"Point","coordinates":[-13.6535,9.585689]},"properties":{"cartodb_id":203,"place":"Ratoma","sub_prefecture":"Ratoma","prefecture":"Conakry","region":"Conakry","organization":"","type":"Hospital","center":"Hospital Jean Paul II","center_id":"GN-STF024","country":"Guinea","longitude":-13.6534996,"latitude":9.5856895}},{"type":"Feature","geometry":{"type":"Point","coordinates":[-12.4475,10.2751]},"properties":{"cartodb_id":204,"place":"Ratoma","sub_prefecture":"Ratoma","prefecture":"Conakry","region":"Conakry","organization":"","type":"Hospital","center":"Hôtel Mariador","center_id":"HM0058","country":"Guinea","longitude":-12.4475002,"latitude":10.2750998}},{"type":"Feature","geometry":{"type":"Point","coordinates":[-13.6535,9.585689]},"properties":{"cartodb_id":205,"place":"Ratoma","sub_prefecture":"Ratoma","prefecture":"Conakry","region":"Conakry","organization":"","type":"Hospital","center":"Jean Paul 2","center_id":"HM1048","country":"Guinea","longitude":-13.6534996,"latitude":9.5856895}},{"type":"Feature","geometry":{"type":"Point","coordinates":[-13.64958,9.552058]},"properties":{"cartodb_id":206,"place":"Route du Niger","sub_prefecture":"Matam","prefecture":"Conakry","region":"Conakry","organization":"","type":"Hospital","center":"Clinique Internationale bel'air (Ciba)","center_id":"HM1071","country":"Guinea","longitude":-13.6495801,"latitude":9.5520583}},{"type":"Feature","geometry":{"type":"Point","coordinates":[-13.683205,9.535633]},"properties":{"cartodb_id":207,"place":"Conakry","sub_prefecture":"Dixinn","prefecture":"Conakry","region":"Conakry","organization":"Gov, MSF, WHO","type":"Hospital","center":"Hôpital National Donka","center_id":"GN-STF022","country":"Guinea","longitude":-13.6832046,"latitude":9.535633}},{"type":"Feature","geometry":{"type":"Point","coordinates":[-13.712222,9.509167]},"properties":{"cartodb_id":208,"place":"Conakry","sub_prefecture":"Kaloum","prefecture":"Conakry","region":"Conakry","organization":"","type":"Medical Center","center":"Neuve","center_id":"GN-STF008","country":"Guinea","longitude":-13.712222,"latitude":9.5091668}},{"type":"Feature","geometry":{"type":"Point","coordinates":[-13.5475,9.6453]},"properties":{"cartodb_id":209,"place":"Conakry","sub_prefecture":"Matoto","prefecture":"Conakry","region":"Conakry","organization":"","type":"Medical Center","center":"CENTRE DE SANTE BETHEL","center_id":"GN-STF121","country":"Guinea","longitude":-13.5475,"latitude":9.6453}},{"type":"Feature","geometry":{"type":"Point","coordinates":[-13.6557,9.5892]},"properties":{"cartodb_id":210,"place":"Conakry","sub_prefecture":"Ratoma","prefecture":"Conakry","region":"Conakry","organization":"","type":"Medical Center","center":"Polyclinique Maison","center_id":"GN-STF007","country":"Guinea","longitude":-13.6557,"latitude":9.5892}},{"type":"Feature","geometry":{"type":"Point","coordinates":[-13.6993,9.5129]},"properties":{"cartodb_id":211,"place":"","sub_prefecture":"Kaloum","prefecture":"Conakry","region":"Conakry","organization":"","type":"Military Hospital","center":"Serv. Santé Forces Armées Camp Samory","center_id":"HM1056","country":"Guinea","longitude":-13.6993,"latitude":9.5129}},{"type":"Feature","geometry":{"type":"Point","coordinates":[-13.673951,9.534399]},"properties":{"cartodb_id":212,"place":"Koleya (Coleya, Coléah)","sub_prefecture":"Matam","prefecture":"Conakry","region":"Conakry","organization":"","type":"Municipal Medical Center","center":"Centre Medical Communal Coléah","center_id":"GN-STF027","country":"Guinea","longitude":-13.673951,"latitude":9.534399}},{"type":"Feature","geometry":{"type":"Point","coordinates":[-13.676389,9.544444]},"properties":{"cartodb_id":213,"place":"Landreya","sub_prefecture":"Dixinn","prefecture":"Conakry","region":"Conakry","organization":"","type":"University Teaching Hospital","center":"Université Gamal","center_id":"HM1053","country":"Guinea","longitude":-13.676389,"latitude":9.544444}},{"type":"Feature","geometry":{"type":"Point","coordinates":[-13.5475,9.6453]},"properties":{"cartodb_id":214,"place":"Conakry","sub_prefecture":"Matoto","prefecture":"Conakry","region":"Conakry","organization":"","type":"University Teaching Hospital","center":"Centre Medical International/ American Hospital/ American International University, School of Medicine","center_id":"GN-STF081","country":"Guinea","longitude":-13.5475,"latitude":9.6453}},{"type":"Feature","geometry":{"type":"Point","coordinates":[-13.582018,9.679801]},"properties":{"cartodb_id":215,"place":"Conakry","sub_prefecture":"Ratoma ","prefecture":"Conakry","region":"Conakry","organization":"","type":"University Teaching Hospital","center":"FAOAMA ","center_id":"GN-STF013","country":"Guinea","longitude":-13.582018,"latitude":9.679801}},{"type":"Feature","geometry":{"type":"Point","coordinates":[-13.612045,9.61194]},"properties":{"cartodb_id":216,"place":"Camayenne","sub_prefecture":"Dixinn","prefecture":"Conakry","region":"Conakry","organization":"","type":"Unknown","center":"Hafia minière FMG","center_id":"HM1052","country":"Guinea","longitude":-13.612045,"latitude":null}},{"type":"Feature","geometry":{"type":"Point","coordinates":[-13.688128,9.53422]},"properties":{"cartodb_id":217,"place":"Camayenne","sub_prefecture":"Dixinn","prefecture":"Conakry","region":"Conakry","organization":"","type":"Unknown","center":"Donka","center_id":"HM1060","country":"Guinea","longitude":-13.6881277,"latitude":9.5342197}},{"type":"Feature","geometry":{"type":"Point","coordinates":[-13.68927,9.535719]},"properties":{"cartodb_id":218,"place":"Camayenne","sub_prefecture":"Dixinn","prefecture":"Conakry","region":"Conakry","organization":"","type":"Unknown","center":"AGBEF Camayenne","center_id":"HM1051","country":"Guinea","longitude":-13.68927,"latitude":null}},{"type":"Feature","geometry":{"type":"Point","coordinates":[-13.710312,9.509061]},"properties":{"cartodb_id":219,"place":"Kaloum","sub_prefecture":"Kaloum","prefecture":"Conakry","region":"Conakry","organization":"","type":"Unknown","center":"Clinique Maawah de Sans fil Kaloum","center_id":"GN-STF100","country":"Guinea","longitude":-13.7103123,"latitude":9.509061}},{"type":"Feature","geometry":{"type":"Point","coordinates":[-13.673951,9.534399]},"properties":{"cartodb_id":220,"place":"Koleya (Coleya, Coléah)","sub_prefecture":"Kaloum","prefecture":"Conakry","region":"Conakry","organization":"","type":"Unknown","center":"Institut National de Santé Publique (INSP) à côté du centre culturel Franco Guinéen","center_id":"HM1054","country":"Guinea","longitude":-13.673951,"latitude":9.534399}},{"type":"Feature","geometry":{"type":"Point","coordinates":[-13.715213,9.512241]},"properties":{"cartodb_id":221,"place":"Tombo Island","sub_prefecture":"Kaloum","prefecture":"Conakry","region":"Conakry","organization":"","type":"Unknown","center":"Socio-Medical Center/French Embassy","center_id":"HM1058","country":"Guinea","longitude":-13.715213,"latitude":null}},{"type":"Feature","geometry":{"type":"Point","coordinates":[-13.699923,9.517125]},"properties":{"cartodb_id":222,"place":"Tombo Island","sub_prefecture":"Kaloum","prefecture":"Conakry","region":"Conakry","organization":"","type":"Unknown","center":"Ministry of agriculture and animal production","center_id":"HM1062","country":"Guinea","longitude":-13.6999235,"latitude":9.5171253}},{"type":"Feature","geometry":{"type":"Point","coordinates":[-13.699923,9.517125]},"properties":{"cartodb_id":223,"place":"Tombo Island","sub_prefecture":"Kaloum","prefecture":"Conakry","region":"Conakry","organization":"","type":"Unknown","center":"Pharmacie Le Diamant","center_id":"HM1063","country":"Guinea","longitude":-13.6999235,"latitude":9.5171253}},{"type":"Feature","geometry":{"type":"Point","coordinates":[-13.713983,9.507611]},"properties":{"cartodb_id":224,"place":"Tombo Island","sub_prefecture":"Kaloum","prefecture":"Conakry","region":"Conakry","organization":"","type":"Unknown","center":"Pharmacie Amar","center_id":"HM1065","country":"Guinea","longitude":-13.7139827,"latitude":9.5076115}},{"type":"Feature","geometry":{"type":"Point","coordinates":[-13.699923,9.517125]},"properties":{"cartodb_id":225,"place":"Tombo Island","sub_prefecture":"Kaloum","prefecture":"Conakry","region":"Conakry","organization":"","type":"Unknown","center":"Clinique Ophtalmologique Bartimee","center_id":"HM1072","country":"Guinea","longitude":-13.6999235,"latitude":9.5171253}},{"type":"Feature","geometry":{"type":"Point","coordinates":[-13.5475,9.6453]},"properties":{"cartodb_id":226,"place":"Conakry","sub_prefecture":"Matoto","prefecture":"Conakry","region":"Conakry","organization":"","type":"Unknown","center":"Jamal Thermos","center_id":"GN-STF084","country":"Guinea","longitude":-13.5475,"latitude":9.6453}},{"type":"Feature","geometry":{"type":"Point","coordinates":[-13.5475,9.6453]},"properties":{"cartodb_id":227,"place":"Conakry","sub_prefecture":"Matoto","prefecture":"Conakry","region":"Conakry","organization":"","type":"Unknown","center":"Mercy Ships - New Steps Centre","center_id":"GN-STF097","country":"Guinea","longitude":-13.5475,"latitude":9.6453}},{"type":"Feature","geometry":{"type":"Point","coordinates":[-13.593396,9.609019]},"properties":{"cartodb_id":228,"place":"","sub_prefecture":"Matoto","prefecture":"Conakry","region":"Conakry","organization":"","type":"Unknown","center":"Mission Alfa","center_id":"GN-STF114","country":"Guinea","longitude":-13.5933962,"latitude":9.609019}},{"type":"Feature","geometry":{"type":"Point","coordinates":[-13.6137,9.5915]},"properties":{"cartodb_id":229,"place":"","sub_prefecture":"Matoto","prefecture":"Conakry","region":"Conakry","organization":"","type":"Unknown","center":"Santé Forces Armées Camp Alpha Yaya","center_id":"GN-STF115","country":"Guinea","longitude":-13.6137,"latitude":9.5915}},{"type":"Feature","geometry":{"type":"Point","coordinates":[-13.6557,9.5892]},"properties":{"cartodb_id":230,"place":"Ratoma","sub_prefecture":"Ratoma","prefecture":"Conakry","region":"Conakry","organization":"","type":"Unknown","center":"Université Sonfonia","center_id":"GN-STF117","country":"Guinea","longitude":-13.6557,"latitude":9.5892}},{"type":"Feature","geometry":{"type":"Point","coordinates":[-13.699923,9.517125]},"properties":{"cartodb_id":231,"place":"Conakry","sub_prefecture":"Kaloum","prefecture":"Conakry","region":"Conakry","organization":"","type":"Unknown","center":"International SOS: Cite Chemin de Fer","center_id":"GN-STF082","country":"Guinea","longitude":-13.6999235,"latitude":9.5171253}},{"type":"Feature","geometry":{"type":"Point","coordinates":[-9.56329,10.6907]},"properties":{"cartodb_id":232,"place":"Banko","sub_prefecture":"Banko","prefecture":"Dabola","region":"Faranah","organization":"","type":"Autres","center":"Banko","center_id":"HM0925","country":"Guinea","longitude":-9.5632896,"latitude":10.6906996}},{"type":"Feature","geometry":{"type":"Point","coordinates":[-11.0299,10.7785]},"properties":{"cartodb_id":233,"place":"Kalela","sub_prefecture":"Dabola-Centre","prefecture":"Dabola","region":"Faranah","organization":"","type":"Autres","center":"Kalela 1","center_id":"HM0631","country":"Guinea","longitude":-11.0298996,"latitude":10.7784996}},{"type":"Feature","geometry":{"type":"Point","coordinates":[-11.0302,10.5643]},"properties":{"cartodb_id":234,"place":"Sembakourian","sub_prefecture":"N'dema","prefecture":"Dabola","region":"Faranah","organization":"","type":"Autres","center":"Camp Des Réfugiés (Poste De Santé)","center_id":"HM0670","country":"Guinea","longitude":-11.0302,"latitude":10.5642996}},{"type":"Feature","geometry":{"type":"Point","coordinates":[-10.5301,11.5829]},"properties":{"cartodb_id":235,"place":"Soubekindi","sub_prefecture":"Datifere","prefecture":"Dinguiraye","region":"Faranah","organization":"","type":"Autres","center":"Soubekindi","center_id":"HM0973","country":"Guinea","longitude":-10.5300999,"latitude":11.5829}},{"type":"Feature","geometry":{"type":"Point","coordinates":[-10.6781,11.4817]},"properties":{"cartodb_id":236,"place":"Bilikity","sub_prefecture":"Dinguiraye-Centre","prefecture":"Dinguiraye","region":"Faranah","organization":"","type":"Autres","center":"Bilkity","center_id":"HM0646","country":"Guinea","longitude":-10.6780996,"latitude":11.4816999}},{"type":"Feature","geometry":{"type":"Point","coordinates":[-10.6554,9.52472]},"properties":{"cartodb_id":237,"place":"Kouratou","sub_prefecture":"Banian","prefecture":"Faranah","region":"Faranah","organization":"","type":"Autres","center":"Kouratou","center_id":"HM0655","country":"Guinea","longitude":-10.6554003,"latitude":9.5247202}},{"type":"Feature","geometry":{"type":"Point","coordinates":[-10.5063,9.52771]},"properties":{"cartodb_id":238,"place":"Nianfourando","sub_prefecture":"Banian","prefecture":"Faranah","region":"Faranah","organization":"","type":"Autres","center":"Nianfourando 2","center_id":"HM0653","country":"Guinea","longitude":-10.5063,"latitude":9.52771}},{"type":"Feature","geometry":{"type":"Point","coordinates":[-10.426,10.1273]},"properties":{"cartodb_id":239,"place":"Serekoro Centre","sub_prefecture":"Beindou","prefecture":"Faranah","region":"Faranah","organization":"","type":"Autres","center":"Sèrèkoro-Centre","center_id":"HM0665","country":"Guinea","longitude":-10.4259996,"latitude":10.1273003}},{"type":"Feature","geometry":{"type":"Point","coordinates":[-10.9506,9.9397]},"properties":{"cartodb_id":240,"place":"Dantilia","sub_prefecture":"Heremakono","prefecture":"Faranah","region":"Faranah","organization":"","type":"Autres","center":"Dantilia","center_id":"HM0662","country":"Guinea","longitude":-10.9505997,"latitude":9.9397001}},{"type":"Feature","geometry":{"type":"Point","coordinates":[-10.833201,10.0177]},"properties":{"cartodb_id":241,"place":"Soulemania","sub_prefecture":"Herémakonon","prefecture":"Faranah","region":"Faranah","organization":"","type":"Autres","center":"Souleymania Centre","center_id":"HM0957","country":"Guinea","longitude":-10.8332005,"latitude":10.0177002}},{"type":"Feature","geometry":{"type":"Point","coordinates":[-10.4944,9.08209]},"properties":{"cartodb_id":242,"place":"Frankouma","sub_prefecture":"Kobikoro","prefecture":"Faranah","region":"Faranah","organization":"","type":"Autres","center":"Frankouma","center_id":"HM0661","country":"Guinea","longitude":-10.4944,"latitude":9.0820904}},{"type":"Feature","geometry":{"type":"Point","coordinates":[-11.3658,10.0505]},"properties":{"cartodb_id":243,"place":"Boussoura","sub_prefecture":"Marela","prefecture":"Faranah","region":"Faranah","organization":"","type":"Autres","center":"Taganya-Centre","center_id":"HM0657","country":"Guinea","longitude":-11.3657999,"latitude":10.0504999}},{"type":"Feature","geometry":{"type":"Point","coordinates":[-11.2297,10.1761]},"properties":{"cartodb_id":244,"place":"Kalyia Centre","sub_prefecture":"Marela","prefecture":"Faranah","region":"Faranah","organization":"","type":"Autres","center":"Kalia-Centre","center_id":"HM0955","country":"Guinea","longitude":-11.2297001,"latitude":10.1760998}},{"type":"Feature","geometry":{"type":"Point","coordinates":[-11.2195,10.2673]},"properties":{"cartodb_id":245,"place":"Saberekaliya","sub_prefecture":"Marela","prefecture":"Faranah","region":"Faranah","organization":"","type":"Autres","center":"Sabere-Kalia","center_id":"HM0954","country":"Guinea","longitude":-11.2194996,"latitude":10.2672997}},{"type":"Feature","geometry":{"type":"Point","coordinates":[-11.2931,10.1703]},"properties":{"cartodb_id":246,"place":"Soloya","sub_prefecture":"Marela","prefecture":"Faranah","region":"Faranah","organization":"","type":"Autres","center":"Soloya Non Fonctionnel","center_id":"HM0658","country":"Guinea","longitude":-11.2931004,"latitude":10.1702995}},{"type":"Feature","geometry":{"type":"Point","coordinates":[-11.0266,10.4951]},"properties":{"cartodb_id":247,"place":"Diguila","sub_prefecture":"Passaya","prefecture":"Faranah","region":"Faranah","organization":"","type":"Autres","center":"Morigbéya","center_id":"HM0666","country":"Guinea","longitude":-11.0265999,"latitude":10.4951}},{"type":"Feature","geometry":{"type":"Point","coordinates":[-10.6427,10.2463]},"properties":{"cartodb_id":248,"place":"Sansanko","sub_prefecture":"Passaya","prefecture":"Faranah","region":"Faranah","organization":"","type":"Autres","center":"Sansanko","center_id":"HM0956","country":"Guinea","longitude":-10.6427002,"latitude":10.2462997}},{"type":"Feature","geometry":{"type":"Point","coordinates":[-10.8144,10.3105]},"properties":{"cartodb_id":249,"place":"Toumania","sub_prefecture":"Passaya","prefecture":"Faranah","region":"Faranah","organization":"","type":"Autres","center":"Bèleya","center_id":"HM0669","country":"Guinea","longitude":-10.8143997,"latitude":10.3105001}},{"type":"Feature","geometry":{"type":"Point","coordinates":[-11.0666,10.0067]},"properties":{"cartodb_id":250,"place":"Niaya","sub_prefecture":"Sandenia","prefecture":"Faranah","region":"Faranah","organization":"","type":"Autres","center":"Maternité Nyaya","center_id":"HM0651","country":"Guinea","longitude":-11.0665998,"latitude":10.0066996}},{"type":"Feature","geometry":{"type":"Point","coordinates":[-9.97321,9.54468]},"properties":{"cartodb_id":251,"place":"Yomadou","sub_prefecture":"Albadaria","prefecture":"Kissidougou","region":"Faranah","organization":"","type":"Autres","center":"Yomadou","center_id":"HM0467","country":"Guinea","longitude":-9.9732103,"latitude":9.5446796}},{"type":"Feature","geometry":{"type":"Point","coordinates":[-9.99939,9.6239]},"properties":{"cartodb_id":252,"place":"Firawaya, Merna","sub_prefecture":"Albadariah","prefecture":"Kissidougou","region":"Faranah","organization":"","type":"Autres","center":"Farawoya","center_id":"HM0469","country":"Guinea","longitude":-9.9993896,"latitude":9.6239004}},{"type":"Feature","geometry":{"type":"Point","coordinates":[-9.75171,9.10193]},"properties":{"cartodb_id":253,"place":"Télébodou","sub_prefecture":"Banama","prefecture":"Kissidougou","region":"Faranah","organization":"","type":"Autres","center":"Telebadou","center_id":"HM0506","country":"Guinea","longitude":-9.7517099,"latitude":9.1019297}},{"type":"Feature","geometry":{"type":"Point","coordinates":[-9.89331,8.96411]},"properties":{"cartodb_id":254,"place":"Kouridian","sub_prefecture":"Bardou","prefecture":"Kissidougou","region":"Faranah","organization":"","type":"Autres","center":"Kondian","center_id":"HM0968","country":"Guinea","longitude":-9.8933096,"latitude":8.9641104}},{"type":"Feature","geometry":{"type":"Point","coordinates":[-9.83783,9.12073]},"properties":{"cartodb_id":255,"place":"Wondokéré","sub_prefecture":"Bardou","prefecture":"Kissidougou","region":"Faranah","organization":"","type":"Autres","center":"Wondekèrè","center_id":"HM0505","country":"Guinea","longitude":-9.8378296,"latitude":9.1207304}},{"type":"Feature","geometry":{"type":"Point","coordinates":[-9.9472,9.04327]},"properties":{"cartodb_id":256,"place":"Dondian","sub_prefecture":"Beindou","prefecture":"Kissidougou","region":"Faranah","organization":"","type":"Autres","center":"Maternité Dondian","center_id":"HM0494","country":"Guinea","longitude":-9.9471998,"latitude":9.0432701}},{"type":"Feature","geometry":{"type":"Point","coordinates":[-9.93439,9.06989]},"properties":{"cartodb_id":257,"place":"Farmassadou","sub_prefecture":"Beindou","prefecture":"Kissidougou","region":"Faranah","organization":"","type":"Autres","center":"Fermessadouba","center_id":"HM0496","country":"Guinea","longitude":-9.9343901,"latitude":9.06989}},{"type":"Feature","geometry":{"type":"Point","coordinates":[-10.0395,9.0921]},"properties":{"cartodb_id":258,"place":"Gbangadou","sub_prefecture":"Beindou","prefecture":"Kissidougou","region":"Faranah","organization":"","type":"Autres","center":"Gbangadou","center_id":"HM0498","country":"Guinea","longitude":-10.0395002,"latitude":9.0921001}},{"type":"Feature","geometry":{"type":"Point","coordinates":[-9.97772,9.01849]},"properties":{"cartodb_id":259,"place":"Kaoro","sub_prefecture":"Beindou","prefecture":"Kissidougou","region":"Faranah","organization":"","type":"Autres","center":"Kaoro","center_id":"HM0495","country":"Guinea","longitude":-9.9777203,"latitude":9.0184898}},{"type":"Feature","geometry":{"type":"Point","coordinates":[-10.0301,9.14368]},"properties":{"cartodb_id":260,"place":"Kofoudou","sub_prefecture":"Beindou","prefecture":"Kissidougou","region":"Faranah","organization":"","type":"Autres","center":"Komora","center_id":"HM0500","country":"Guinea","longitude":-10.0300999,"latitude":9.1436796}},{"type":"Feature","geometry":{"type":"Point","coordinates":[-10.0599,9.12653]},"properties":{"cartodb_id":261,"place":"Komaro","sub_prefecture":"Beindou","prefecture":"Kissidougou","region":"Faranah","organization":"","type":"Autres","center":"Polodou","center_id":"HM0499","country":"Guinea","longitude":-10.0599003,"latitude":9.1265297}},{"type":"Feature","geometry":{"type":"Point","coordinates":[-10.0498,9.0105]},"properties":{"cartodb_id":262,"place":"Lela","sub_prefecture":"Beindou","prefecture":"Kissidougou","region":"Faranah","organization":"","type":"Autres","center":"Léla","center_id":"HM0497","country":"Guinea","longitude":-10.0497999,"latitude":9.0105}},{"type":"Feature","geometry":{"type":"Point","coordinates":[-9.979,9.1217]},"properties":{"cartodb_id":263,"place":"Niamandou","sub_prefecture":"Beindou","prefecture":"Kissidougou","region":"Faranah","organization":"","type":"Autres","center":"Gnamandou","center_id":"HM0502","country":"Guinea","longitude":-9.9790001,"latitude":9.1217003}},{"type":"Feature","geometry":{"type":"Point","coordinates":[-10.1505,9.13647]},"properties":{"cartodb_id":264,"place":"Fermessadou","sub_prefecture":"Fermesadou-Pombo","prefecture":"Kissidougou","region":"Faranah","organization":"","type":"Autres","center":"Fermessadou-Pombo","center_id":"HM0492","country":"Guinea","longitude":-10.1505003,"latitude":9.1364698}},{"type":"Feature","geometry":{"type":"Point","coordinates":[-10.1875,9.18109]},"properties":{"cartodb_id":265,"place":"Massakoudou","sub_prefecture":"Fermesadou-Pombo","prefecture":"Kissidougou","region":"Faranah","organization":"","type":"Autres","center":"Massakondou","center_id":"HM0493","country":"Guinea","longitude":-10.1875,"latitude":9.1810904}},{"type":"Feature","geometry":{"type":"Point","coordinates":[-9.84119,9.24652]},"properties":{"cartodb_id":266,"place":"Dondian","sub_prefecture":"Firawa","prefecture":"Kissidougou","region":"Faranah","organization":"","type":"Autres","center":"Dondian","center_id":"HM0491","country":"Guinea","longitude":-9.8411903,"latitude":9.24652}},{"type":"Feature","geometry":{"type":"Point","coordinates":[-9.78571,9.216309]},"properties":{"cartodb_id":267,"place":"Firawa","sub_prefecture":"Firawa","prefecture":"Kissidougou","region":"Faranah","organization":"","type":"Autres","center":"Centre de Santé Firawa","center_id":"HM0490","country":"Guinea","longitude":-9.7857103,"latitude":9.2163095}},{"type":"Feature","geometry":{"type":"Point","coordinates":[-10.0334,9.21588]},"properties":{"cartodb_id":268,"place":"Bayan","sub_prefecture":"Gbangbadou","prefecture":"Kissidougou","region":"Faranah","organization":"","type":"Autres","center":"Botobofel (Forest ?)","center_id":"HM0676","country":"Guinea","longitude":-10.0333996,"latitude":9.2158804}},{"type":"Feature","geometry":{"type":"Point","coordinates":[-10.0335,9.22449]},"properties":{"cartodb_id":269,"place":"Gbangbadou Centre","sub_prefecture":"Gbangbadou","prefecture":"Kissidougou","region":"Faranah","organization":"","type":"Autres","center":"Banga","center_id":"HM0675","country":"Guinea","longitude":-10.0334997,"latitude":9.2244902}},{"type":"Feature","geometry":{"type":"Point","coordinates":[-10.0416,8.9259]},"properties":{"cartodb_id":270,"place":"Koulia","sub_prefecture":"Kondiadou","prefecture":"Kissidougou","region":"Faranah","organization":"","type":"Autres","center":"Koulia","center_id":"HM0482","country":"Guinea","longitude":-10.0416002,"latitude":8.9259005}},{"type":"Feature","geometry":{"type":"Point","coordinates":[-9.90851,9.44629]},"properties":{"cartodb_id":271,"place":"Yaradou ","sub_prefecture":"Koundiado","prefecture":"Kissidougou","region":"Faranah","organization":"","type":"Autres","center":"Yardo","center_id":"HM0948","country":"Guinea","longitude":-9.9085102,"latitude":9.44629}},{"type":"Feature","geometry":{"type":"Point","coordinates":[-10.0631,9.3479]},"properties":{"cartodb_id":272,"place":"Bambaya","sub_prefecture":"Sangardo","prefecture":"Kissidougou","region":"Faranah","organization":"","type":"Autres","center":"Bergué Centre","center_id":"HM0636","country":"Guinea","longitude":-10.0630999,"latitude":9.3479004}},{"type":"Feature","geometry":{"type":"Point","coordinates":[-10.2983,9.2879]},"properties":{"cartodb_id":273,"place":"Doumou","sub_prefecture":"Sangardo","prefecture":"Kissidougou","region":"Faranah","organization":"","type":"Autres","center":"Doumou","center_id":"HM0642","country":"Guinea","longitude":-10.2982998,"latitude":9.2879}},{"type":"Feature","geometry":{"type":"Point","coordinates":[-10.0884,9.01489]},"properties":{"cartodb_id":274,"place":"Walto","sub_prefecture":"Yende Millimou","prefecture":"Kissidougou","region":"Faranah","organization":"","type":"Autres","center":"Gbaran","center_id":"HM0474","country":"Guinea","longitude":-10.0883999,"latitude":9.0148897}},{"type":"Feature","geometry":{"type":"Point","coordinates":[-10.1483,8.99847]},"properties":{"cartodb_id":275,"place":"Walto","sub_prefecture":"Yende Millimou","prefecture":"Kissidougou","region":"Faranah","organization":"","type":"Autres","center":"Firadou","center_id":"HM0475","country":"Guinea","longitude":-10.1483002,"latitude":8.9984703}},{"type":"Feature","geometry":{"type":"Point","coordinates":[-10.2181,8.96667]},"properties":{"cartodb_id":276,"place":"Bamba","sub_prefecture":"Yendé-Millimou","prefecture":"Kissidougou","region":"Faranah","organization":"","type":"Autres","center":"Bamba","center_id":"HM0473","country":"Guinea","longitude":-10.2180996,"latitude":8.96667}},{"type":"Feature","geometry":{"type":"Point","coordinates":[-10.1817,9.02588]},"properties":{"cartodb_id":277,"place":"Karadou","sub_prefecture":"Yendé-Millimou","prefecture":"Kissidougou","region":"Faranah","organization":"","type":"Autres","center":"Karadou","center_id":"HM0470","country":"Guinea","longitude":-10.1816998,"latitude":9.0258799}},{"type":"Feature","geometry":{"type":"Point","coordinates":[-10.1939,9.01532]},"properties":{"cartodb_id":278,"place":"Karadou","sub_prefecture":"Yendé-Millimou","prefecture":"Kissidougou","region":"Faranah","organization":"","type":"Autres","center":"Karadou","center_id":"HM0471","country":"Guinea","longitude":-10.1939001,"latitude":9.0153198}},{"type":"Feature","geometry":{"type":"Point","coordinates":[-10.4131,9.081119]},"properties":{"cartodb_id":279,"place":"Dankaldou","sub_prefecture":"Yombiro","prefecture":"Kissidougou","region":"Faranah","organization":"","type":"Autres","center":"Sonifanyo","center_id":"HM0508","country":"Guinea","longitude":-10.4131002,"latitude":9.0811195}},{"type":"Feature","geometry":{"type":"Point","coordinates":[-11.2296,10.8605]},"properties":{"cartodb_id":280,"place":"Dounkito","sub_prefecture":"Arfamoussaya","prefecture":"Dabola","region":"Faranah","organization":"","type":"Centre de Sante","center":"Dounkito","center_id":"HM0627","country":"Guinea","longitude":-11.2296,"latitude":10.8605003}},{"type":"Feature","geometry":{"type":"Point","coordinates":[-11.3227,10.7505]},"properties":{"cartodb_id":281,"place":"Kouroufimba","sub_prefecture":"Arfamoussaya","prefecture":"Dabola","region":"Faranah","organization":"","type":"Centre de Sante","center":"Mosquée du Kouroufimba","center_id":"HM0623","country":"Guinea","longitude":-11.3226995,"latitude":10.7504997}},